~Version
VERS .        2      : CWLS LAS Version 2.0
WRAP .        NO     : One Line per Depth Step 
~Well
#MNEM.UNIT       Data Type                    Information
#---------       ---------                    -------------------------------
 STRT.M 1119.8352 :
 STOP.M 2184.8064 :
 STEP.M 0.1524 :
 NULL. -999.2500 :
 COMP.      LAM SON JOC             : COMPANY NAME
 WELL.      W4                      : WELL NAME
 FLD .      DONG DO                 : FIELD NAME
 LOC .      CUU LONG BASIN          : LOCATION
 PROV.      OFFSHORE                : PROVINCE
 COUN.      VIETNAM                 : COUNTY
 STATE.     VUNG TAU                : 
 CTRY.      VIETNAM                 : COUNTRY
 SRVC.      DUYENBEO                : SERVICE COMPANY
 DATE.      04 MAR 2011             : SERVICE DATE
 LOSTARTIME.04 03 2011              : 
 UWI.       0123456789BEO0126       : UNIQUE WELL ID
 API.       9876543210126           : 
 LIC .      00074                   : LICENCE NUMBER
 LATI.      14                      : LATITUDE
 LONG.      1414                    : LONGITUDE
 GDAT.      LAVENDER4               : GEODETIC DATUM
~Curve
#MNEM.UNIT       API Code            Curve    Description
#--------        --------------      -----    -------------------
DEPTH.M  :
DTCO3.US/F  :
ECGR.GAPI  :
~Parameter
#MNEM.UNIT       Value                        Description
#---------       ---------                    -------------
~A  DEPTH   DTCO3   ECGR
# ...
      1331.0616          107.0172          124.2433
      1331.2140          107.7691          126.9717
      1331.3664          107.9642          129.1277
      1331.5188          107.1969          128.6346
      1331.6712          106.1173          120.1187
      1331.8236          103.4557          116.4922
      1331.9760          100.0825          121.7711
      1332.1284          100.3952          128.4764
      1332.2808           97.9868          129.6209
      1332.4332           95.9841          122.4483
      1332.5856           96.0871          119.8756
      1332.7380           94.6153          121.8022
      1332.8904           94.9213          130.1995
      1333.0428           95.8755          135.3550
      1333.1952          100.0553          141.4430
      1333.3476          101.0747          139.3878
      1333.5000          102.8408          143.8789
      1333.6524          107.0343          143.5780
      1333.8048          108.2213          149.8898
      1333.9572          109.5898          150.0474
      1334.1096          110.9113          151.8918
      1334.2620          112.3712          151.0806
      1334.4144          113.1482          152.0217
      1334.5668          114.3126          150.9853
      1334.7192          116.1950          154.6276
      1334.8716          116.2664          157.5886
      1335.0240          116.1655          159.5937
      1335.1764          115.7189          155.7710
      1335.3288          115.6060          145.4789
      1335.4812          115.5030          149.2019
      1335.6336          115.2699          152.5503
      1335.7860          115.3436          153.2886
      1335.9384          115.9036          147.9534
      1336.0908          116.3303          143.9140
      1336.2432          116.7343          141.4645
      1336.3956          116.4218          139.3750
      1336.5480          114.7037          139.0769
      1336.7004          114.2439          144.0806
      1336.8528          113.8135          149.8848
      1337.0052          113.6141          154.3082
      1337.1576          114.5099          152.6452
      1337.3100          114.1943          149.5277
      1337.4624          113.3134          150.4585
      1337.6148          113.1207          146.4859
      1337.7672          113.0076          147.3198
      1337.9196          114.2736          142.7738
      1338.0720          113.7139          146.2530
      1338.2244          113.8450          143.3666
      1338.3768          113.1696          145.3274
      1338.5292          113.2903          149.5255
      1338.6816          113.6793          152.4914
      1338.8340          123.5942          150.8170
      1338.9864          123.9907          147.7832
      1339.1388          124.1597          150.5750
      1339.2912          124.1416          153.3993
      1339.4436          121.0363          161.4413
      1339.5960          121.1237          168.5835
      1339.7484          121.6137          171.1180
      1339.9008          122.8451          161.4121
      1340.0532          123.4275          161.4547
      1340.2056          123.4568          159.1268
      1340.3580          122.1841          158.9559
      1340.5104          120.5003          154.2792
      1340.6628          118.6252          134.0081
      1340.8152          112.4017          116.5246
      1340.9676          110.0039          102.7691
      1341.1200          107.8430          101.1678
      1341.2724          104.7280          103.5630
      1341.4248          103.8743          100.5120
      1341.5772          100.3662          102.1009
      1341.7296           99.1219          103.9265
      1341.8820           97.8982          108.6409
      1342.0344           96.6811          109.8287
      1342.1868           95.5947          108.2359
      1342.3392           95.3425          108.7036
      1342.4916           96.0125          107.0187
      1342.6440           96.6473          109.8528
      1342.7964           97.2111          106.6257
      1342.9488           99.1310          105.5064
      1343.1012          100.4759          100.6964
      1343.2536          101.1340           98.3329
      1343.4060          102.2284           97.2544
      1343.5584          102.5550           94.6473
      1343.7108          102.8855           92.4932
      1343.8632          102.9807           90.6983
      1344.0156          102.1925           92.0923
      1344.1680          100.9322           98.6508
      1344.3204          100.9552          102.3344
      1344.4728          101.2884           99.9126
      1344.6252          102.0450           99.4750
      1344.7776          101.7445           94.9476
      1344.9300          102.0385           98.5696
      1345.0824          104.2299           93.1166
      1345.2348          104.1189           94.3483
      1345.3872          104.0778           91.0382
      1345.5396          108.2602           89.8805
      1345.6920          106.5319           87.4175
      1345.8444          106.7545           86.3847
      1345.9968          107.7030           89.1265
      1346.1492          108.2088           91.9561
      1346.3016          108.6006           93.0446
      1346.4540          109.6029           92.7646
      1346.6064          110.1649           92.9080
      1346.7588          110.3710           95.0577
      1346.9112          110.5086           93.6463
      1347.0636          110.6984           95.5486
      1347.2160          110.5679           95.3205
      1347.3684          110.5416           98.1145
      1347.5208          110.4178           97.6772
      1347.6732          109.7803           97.3856
      1347.8256          108.6736           94.6889
      1347.9780          108.3439           94.1901
      1348.1304          107.6855           89.3493
      1348.2828           71.4333           86.1882
      1348.4352           72.5673           84.0469
      1348.5876           68.1286           82.5694
      1348.7400           69.5125           78.9810
      1348.8924           71.7706           74.4504
      1349.0448           74.4588           73.4797
      1349.1972           75.8296           71.9283
      1349.3496           90.9164           72.4471
      1349.5020          106.0032           69.6601
      1349.6544          106.0055           71.7345
      1349.8068          107.0985           78.3629
      1349.9592          108.9669           88.3018
      1350.1116          108.0303           94.6908
      1350.2640          107.6039           91.7086
      1350.4164          108.4624           93.5477
      1350.5688          109.6483           94.3891
      1350.7212          110.2989           93.1418
      1350.8736          110.6323           94.6389
      1351.0260          111.2421           93.0092
      1351.1784          111.3568           96.3514
      1351.3308          111.2082           95.0249
      1351.4832          111.3340           94.5213
      1351.6356          111.2565           91.3416
      1351.7880          111.2359           92.8589
      1351.9404          111.3185           93.7807
      1352.0928          111.3088           96.6467
      1352.2452          111.3699           90.7998
      1352.3976          111.5224           94.1406
      1352.5500          111.6026           91.3988
      1352.7024          111.5285           91.8714
      1352.8548          111.7930           88.9088
      1353.0072          111.6410           92.3619
      1353.1596          111.7999           94.5342
      1353.3120          111.8238           95.0589
      1353.4644          111.8279           95.6973
      1353.6168          111.5815           90.7442
      1353.7692          111.7102           88.6366
      1353.9216          111.6109           86.9280
      1354.0740          111.5700           89.3601
      1354.2264          111.5390           87.0501
      1354.3788          111.4439           84.7184
