~Version
VERS .        2      : CWLS LAS Version 2.0
WRAP .        NO     : One Line per Depth Step 
~Well
#MNEM.UNIT       Data Type                    Information
#---------       ---------                    -------------------------------
 STRT.M 1119.8352 :
 STOP.M 2184.8064 :
 STEP.M 0.1524 :
 NULL. -999.2500 :
 COMP.      LAM SON JOC             : COMPANY NAME
 WELL.      W4                      : WELL NAME
 FLD .      DONG DO                 : FIELD NAME
 LOC .      CUU LONG BASIN          : LOCATION
 PROV.      OFFSHORE                : PROVINCE
 COUN.      VIETNAM                 : COUNTY
 STATE.     VUNG TAU                : 
 CTRY.      VIETNAM                 : COUNTRY
 SRVC.      DUYENBEO                : SERVICE COMPANY
 DATE.      04 MAR 2011             : SERVICE DATE
 LOSTARTIME.04 03 2011              : 
 UWI.       0123456789BEO0126       : UNIQUE WELL ID
 API.       9876543210126           : 
 LIC .      00074                   : LICENCE NUMBER
 LATI.      14                      : LATITUDE
 LONG.      1414                    : LONGITUDE
 GDAT.      LAVENDER4               : GEODETIC DATUM
~Curve
#MNEM.UNIT       API Code            Curve    Description
#--------        --------------      -----    -------------------
DEPTH.M  :
DTCO3.US/F  :
ECGR.GAPI  :
~Parameter
#MNEM.UNIT       Value                        Description
#---------       ---------                    -------------
~A  DEPTH   DTCO3   ECGR
# ...
      1401.4704          106.5557          133.6716
      1401.6228          106.6999          143.7036
      1401.7752          106.0378          147.0225
      1401.9276          106.6063          147.3967
      1402.0800          108.9500          138.4071
      1402.2324          109.2882          136.7870
      1402.3848          109.7384          140.4744
      1402.5372          110.0125          135.7254
      1402.6896          110.2649          133.8038
      1402.8420          106.9186          133.1748
      1402.9944          105.5710          142.5903
      1403.1468          104.1651          140.7657
      1403.2992          103.6000          140.0647
      1403.4516          102.5360          138.7495
      1403.6040           95.8800          134.7565
      1403.7564           93.3960          133.6337
      1403.9088           92.6448          127.9185
      1404.0612           92.1442          125.8767
      1404.2136           91.3057          125.2923
      1404.3660           91.6955          136.0829
      1404.5184           91.3399          142.9378
      1404.6708           96.0063          148.0344
      1404.8232           96.1869          149.3961
      1404.9756           96.8669          147.6891
      1405.1280           98.3587          142.7278
      1405.2804           99.9803          135.0484
      1405.4328          101.8424          141.4731
      1405.5852          107.4300          144.6600
      1405.7376          110.3076          147.3772
      1405.8900          112.3166          152.3770
      1406.0424          113.5214          157.2029
      1406.1948          115.5853          160.3662
      1406.3472          118.2168          157.0307
      1406.4996          120.5312          156.8992
      1406.6520          120.6772          154.0097
      1406.8044          121.9066          149.3037
      1406.9568          118.0747          148.0747
      1407.1092          117.8273          146.3847
      1407.2616          119.0261          146.2197
      1407.4140          109.9933          141.7378
      1407.5664          109.9448          133.6291
      1407.7188          108.9660          127.5974
      1407.8712          104.0508          125.6989
      1408.0236          103.0309          126.6116
      1408.1760          101.6818          125.4297
      1408.3284           95.6147          122.2216
      1408.4808           93.0611          114.0510
      1408.6332           90.6714          111.8962
      1408.7856          116.9293          112.3662
      1408.9380          113.0005          115.3560
      1409.0904          115.7581          123.7696
      1409.2428          122.1226          129.3286
      1409.3952          117.6283          137.7315
      1409.5476          128.3722          144.3181
      1409.7000          127.7147          146.8562
      1409.8524          128.7547          154.2405
      1410.0048          130.0999          150.9598
      1410.1572          129.4260          150.9794
      1410.3096          131.6426          153.6395
      1410.4620          131.8095          161.3054
      1410.6144          131.6777          172.8927
      1410.7668          130.2893          173.8547
      1410.9192          132.4640          179.0570
      1411.0716          138.2184          177.4844
      1411.2240          140.0621          162.5077
      1411.3764          141.8472          148.0801
      1411.5288          139.4812          133.4994
      1411.6812          138.9476          146.8477
      1411.8336          110.4234          160.1749
      1411.9860          114.0346          172.7049
      1412.1384          107.2953          169.3733
      1412.2908          107.1086          173.5455
      1412.4432          111.4268          164.5354
      1412.5956          119.6864          152.4711
      1412.7480          119.7007          125.5484
      1412.9004          120.2418          110.6544
      1413.0528           96.0836           99.9152
      1413.2052           96.1831          115.9594
      1413.3576           95.9890          136.1346
      1413.5100           96.3899          160.9296
      1413.6624          110.2101          159.0346
      1413.8148          111.9593          155.5273
      1413.9672          111.9425          146.4244
      1414.1196          113.1884          145.5161
      1414.2720          113.5459          145.5894
      1414.4244          113.0281          153.3955
      1414.5768          113.0049          161.1024
      1414.7292          111.6562          164.6144
      1414.8816          110.0690          164.3619
      1415.0340          108.7140          158.1887
      1415.1864          108.4567          150.7758
      1415.3388          109.0155          143.5757
      1415.4912          111.1749          140.6998
      1415.6436          113.3342          142.0812
      1415.7960          114.7790          146.9189
      1415.9484          115.1573          150.5399
      1416.1008          124.4710          157.9279
      1416.2532          124.2257          151.5432
      1416.4056          120.2280          152.5242
      1416.5580          121.9937          156.2553
      1416.7104          121.7861          163.6368
      1416.8628          123.8318          165.9561
      1417.0152          120.3683          164.7716
      1417.1676          114.5229          153.9150
      1417.3200           99.6549          145.9566
      1417.4724          100.3334          133.3841
      1417.6248          100.7138          130.7876
      1417.7772           98.6873          127.7339
      1417.9296          101.0165          127.9888
      1418.0820          101.5819          125.7440
      1418.2344          103.7518          132.6910
      1418.3868          104.6581          137.6827
      1418.5392          107.2718          147.0358
      1418.6916          111.1345          151.0367
      1418.8440          112.5221          156.2062
      1418.9964          113.2513          161.2824
      1419.1488          115.6143          160.7281
      1419.3012          116.1278          158.4299
      1419.4536          117.2070          155.9209
      1419.6060          117.6003          158.3428
      1419.7584          118.7476          155.4445
      1419.9108          120.3518          146.3131
      1420.0632          123.4247          142.1357
      1420.2156          125.3887          142.1572
      1420.3680          127.3468          150.4193
      1420.5204          129.7488          148.3364
      1420.6728          130.2057          145.4151
      1420.8252          130.5591          138.6702
      1420.9776          129.4861          128.2791
      1421.1300          128.3794          119.7833
      1421.2824          126.8006          118.3723
      1421.4348          125.4374          119.1892
      1421.5872          109.6574          122.6541
      1421.7396          107.3234          124.1352
      1421.8920          106.9313          138.1590
      1422.0444          106.0143          142.2149
      1422.1968          105.1538          142.0931
      1422.3492          104.8060          135.4197
      1422.5016          105.0648          140.6193
      1422.6540          105.1445          145.8039
      1422.8064          105.3898          149.6417
      1422.9588          108.4517          146.8559
      1423.1112          108.6563          144.1972
      1423.2636          108.7833          143.9920
      1423.4160          108.8015          146.8403
      1423.5684          109.3564          146.2553
      1423.7208          108.7989          146.8308
      1423.8732          107.4112          139.8809
      1424.0256          105.9760          135.5093
      1424.1780          104.3584          125.7597
      1424.3304          100.5509          117.2643
      1424.4828           99.7880          109.8916
      1424.6352           98.9523          108.1960
      1424.7876           98.0575          110.1233
