~Version
VERS .        2      : CWLS LAS Version 2.0
WRAP .        NO     : One Line per Depth Step 
~Well
#MNEM.UNIT       Data Type                    Information
#---------       ---------                    -------------------------------
 STRT.M 1119.8352 :
 STOP.M 2184.8064 :
 STEP.M 0.1524 :
 NULL. -999.2500 :
 COMP.      LAM SON JOC             : COMPANY NAME
 WELL.      W4                      : WELL NAME
 FLD .      DONG DO                 : FIELD NAME
 LOC .      CUU LONG BASIN          : LOCATION
 PROV.      OFFSHORE                : PROVINCE
 COUN.      VIETNAM                 : COUNTY
 STATE.     VUNG TAU                : 
 CTRY.      VIETNAM                 : COUNTRY
 SRVC.      DUYENBEO                : SERVICE COMPANY
 DATE.      04 MAR 2011             : SERVICE DATE
 LOSTARTIME.04 03 2011              : 
 UWI.       0123456789BEO0126       : UNIQUE WELL ID
 API.       9876543210126           : 
 LIC .      00074                   : LICENCE NUMBER
 LATI.      14                      : LATITUDE
 LONG.      1414                    : LONGITUDE
 GDAT.      LAVENDER4               : GEODETIC DATUM
~Curve
#MNEM.UNIT       API Code            Curve    Description
#--------        --------------      -----    -------------------
DEPTH.M  :
DTCO3.US/F  :
ECGR.GAPI  :
~Parameter
#MNEM.UNIT       Value                        Description
#---------       ---------                    -------------
~A  DEPTH   DTCO3   ECGR
# ...
      2152.4976           76.5764          105.7197
      2152.6500           76.5764          102.2996
      2152.8024           76.5764           96.3703
      2152.9548           76.5764           95.5157
      2153.1072           76.5764           97.0930
      2153.2596           76.5764          101.3651
      2153.4120           76.5764          102.6129
      2153.5644           76.5764          101.6537
      2153.7168           76.5764           99.0148
      2153.8692           76.5764           92.5204
      2154.0216           76.5764           90.8603
      2154.1740           76.5764           90.3782
      2154.3264           76.5764           92.3844
      2154.4788           76.5764           94.4638
      2154.6312           76.5764           98.1230
      2154.7836           76.5764          101.1958
      2154.9360           76.5764          104.1276
      2155.0884           76.5764          105.7415
      2155.2408           76.5764          106.8848
      2155.3932           76.5764          106.9433
      2155.5456           76.5764          103.3214
      2155.6980           76.5764          104.6926
      2155.8504           76.5764          103.3087
      2156.0028           76.5764          107.9273
      2156.1552           76.5764          107.1634
      2156.3076           76.5764          106.3392
      2156.4600           76.5764          101.9658
      2156.6124           76.5764           99.9969
      2156.7648           76.5764          107.9380
      2156.9172           76.5764          105.3923
      2157.0696           76.5764          108.2977
      2157.2220           76.5764          102.4284
      2157.3744           76.5764          108.3390
      2157.5268           76.5764          108.8163
      2157.6792           76.5764          113.0999
      2157.8316           76.5764          111.1024
      2157.9840           76.5764          109.0717
      2158.1364           76.5764          106.2706
      2158.2888           76.5764          108.5287
      2158.4412           76.5764          106.8383
      2158.5936           76.5764          110.4765
      2158.7460           76.5764          109.0239
      2158.8984           76.5764          110.1040
      2159.0508           76.5764          112.2830
      2159.2032           76.5764          114.7212
      2159.3556           76.5764          121.7393
      2159.5080           76.5764          119.2531
      2159.6604           76.5764          119.3564
      2159.8128           76.5764          118.8352
      2159.9652           76.5764          117.0879
      2160.1176           76.5764          112.1003
      2160.2700           76.5764          108.0704
      2160.4224           76.5764          114.7535
      2160.5748           76.5764          119.9149
      2160.7272           76.5764          118.8400
      2160.8796           76.5764          113.5701
      2161.0320           76.5764          108.2753
      2161.1844           76.5764          111.3260
      2161.3368           76.5764          111.3932
      2161.4892           76.5764          112.3837
      2161.6416           76.5764          110.4023
      2161.7940           76.5764          112.0660
      2161.9464           76.5764          114.7448
      2162.0988           76.5764          111.0377
      2162.2512           76.5764          110.9103
      2162.4036           76.5764          107.6191
      2162.5560           76.5764          110.2513
      2162.7084           76.5764          111.1926
      2162.8608           76.5764          111.1298
      2163.0132           76.5764          109.6421
      2163.1656           76.5764          107.8274
      2163.3180           76.5764          108.9625
      2163.4704           76.5764          108.7330
      2163.6228           76.5764          108.8565
      2163.7752           76.5764          111.8025
      2163.9276           76.5764          116.9216
      2164.0800           76.5764          123.2768
      2164.2324           76.5764          119.5041
      2164.3848           76.5764          114.6401
      2164.5372           76.5764          108.4368
      2164.6896           76.5764          107.5417
      2164.8420           76.5764          111.0721
      2164.9944           76.5764          107.9550
      2165.1468           76.5764          108.7885
      2165.2992           76.5764          101.4632
      2165.4516           76.5764          104.4227
      2165.6040           76.5764          104.2338
      2165.7564           76.5764          105.6640
      2165.9088           76.5764          105.4915
      2166.0612           76.5764          105.9011
      2166.2136           76.5764          110.1801
      2166.3660           76.5764          109.6057
      2166.5184           76.5764          112.3259
      2166.6708           76.5764          109.2771
      2166.8232           76.5764          109.0216
      2166.9756           76.5764          106.8192
      2167.1280           76.5764          106.8683
      2167.2804           76.5764          100.6768
      2167.4328           76.5764           91.2605
      2167.5852           76.5764           83.3584
      2167.7376           76.5764           81.2479
      2167.8900           76.5764           80.7895
      2168.0424           76.5764           80.9199
      2168.1948           76.5764           80.9672
      2168.3472           76.5764           81.0973
      2168.4996           76.5764           81.3805
      2168.6520           76.5764           81.6627
      2168.8044           76.5764           81.5217
      2168.9568           76.5764           81.5335
      2169.1092           76.5764           81.9673
      2169.2616           76.5764           81.4394
      2169.4140           76.5764           81.0264
      2169.5664           76.5764           81.4747
      2169.7188           76.5764           80.9554
      2169.8712           76.5764           80.6708
      2170.0236           76.5764           80.8488
      2170.1760           76.5764           81.1092
      2170.3284           76.5764           81.1210
      2170.4808           76.5764           81.1328
      2170.6332           76.5764           81.1210
      2170.7856           76.5764           81.1092
      2170.9380           76.5764           81.1092
      2171.0904           76.5764           81.1092
      2171.2428           76.5764           81.1092
      2171.3952           76.5764           81.0973
      2171.5476           76.5764           81.1210
      2171.7000           76.5764           81.0737
      2171.8524           76.5764           81.0973
      2172.0048           76.5764           81.0855
      2172.1572           76.5764           81.0855
      2172.3096           76.5764           81.0973
      2172.4620           76.5764           81.0619
      2172.6144           76.5764           81.0737
      2172.7668           76.5764           81.0855
      2172.9192           76.5764           81.0737
      2173.0716           76.5764           81.0264
      2173.2240           76.5764           81.0264
      2173.3764           76.5764           81.0264
      2173.5288           76.5764           81.0264
      2173.6812           76.5764           81.0264
      2173.8336           76.5764           81.0264
      2173.9860           76.5764           81.0264
      2174.1384           76.5764           81.0264
      2174.2908           76.5764           81.0264
      2174.4432           76.5764           81.0264
      2174.5956           76.5764           81.0264
      2174.7480           76.5764           81.0264
      2174.9004           76.5764           81.0264
      2175.0528           76.5764           81.0264
      2175.2052           76.5764           81.0264
      2175.3576           76.5764           81.0264
      2175.5100           76.5764           81.0264
      2175.6624           76.5764           81.0264
      2175.8148           76.5764           81.0264
