~Version
VERS .        2      : CWLS LAS Version 2.0
WRAP .        NO     : One Line per Depth Step 
~Well
#MNEM.UNIT       Data Type                    Information
#---------       ---------                    -------------------------------
 STRT.M 1119.8352 :
 STOP.M 2184.8064 :
 STEP.M 0.1524 :
 NULL. -999.2500 :
 COMP.      LAM SON JOC             : COMPANY NAME
 WELL.      W4                      : WELL NAME
 FLD .      DONG DO                 : FIELD NAME
 LOC .      CUU LONG BASIN          : LOCATION
 PROV.      OFFSHORE                : PROVINCE
 COUN.      VIETNAM                 : COUNTY
 STATE.     VUNG TAU                : 
 CTRY.      VIETNAM                 : COUNTRY
 SRVC.      DUYENBEO                : SERVICE COMPANY
 DATE.      04 MAR 2011             : SERVICE DATE
 LOSTARTIME.04 03 2011              : 
 UWI.       0123456789BEO0126       : UNIQUE WELL ID
 API.       9876543210126           : 
 LIC .      00074                   : LICENCE NUMBER
 LATI.      14                      : LATITUDE
 LONG.      1414                    : LONGITUDE
 GDAT.      LAVENDER4               : GEODETIC DATUM
~Curve
#MNEM.UNIT       API Code            Curve    Description
#--------        --------------      -----    -------------------
DEPTH.M  :
DTCO3.US/F  :
ECGR.GAPI  :
~Parameter
#MNEM.UNIT       Value                        Description
#---------       ---------                    -------------
~A  DEPTH   DTCO3   ECGR
# ...
      1542.2880           97.5544          117.8870
      1542.4404           97.5572          120.7764
      1542.5928           97.6042          118.3616
      1542.7452           97.8322          107.6438
      1542.8976           98.0521           99.5122
      1543.0500           97.8486           97.2361
      1543.2024           97.5507           96.1374
      1543.3548           96.6991           97.1807
      1543.5072           96.0716           97.7906
      1543.6596           96.1170          102.0567
      1543.8120           94.8511          103.3921
      1543.9644           94.6330          101.3113
      1544.1168           94.3429           92.6202
      1544.2692           94.4260           91.5100
      1544.4216           94.0318           91.2297
      1544.5740           93.8556           89.3066
      1544.7264           93.6245           83.2760
      1544.8788           93.6804           81.1531
      1545.0312           93.6703           82.6961
      1545.1836           93.6380           86.0751
      1545.3360           93.8182           86.1279
      1545.4884           94.4306           89.3168
      1545.6408           95.2945           90.3792
      1545.7932           95.6345           90.5493
      1545.9456           97.4244           92.7820
      1546.0980           98.5506           88.7872
      1546.2504           99.1680           91.9758
      1546.4028           99.0355           87.2718
      1546.5552           99.0047           91.5368
      1546.7076           99.0982           86.6569
      1546.8600           98.7479           89.1478
      1547.0124           96.8252           82.6850
      1547.1648           95.9217           84.3517
      1547.3172           95.0253           82.6205
      1547.4696           92.7201           86.7322
      1547.6220           91.8232           86.0253
      1547.7744           91.3696           83.4578
      1547.9268           91.3988           85.9612
      1548.0792           91.6366           85.7475
      1548.2316           92.2557           88.0982
      1548.3840           92.8299           86.1441
      1548.5364           93.9845           88.7695
      1548.6888           94.5948           90.8788
      1548.8412           95.1407           89.9766
      1548.9936           95.6756           87.3591
      1549.1460           95.8681           88.8765
      1549.2984           96.3315           88.0582
      1549.4508           96.4219           91.2094
      1549.6032           97.0000           92.5128
      1549.7556           96.9444           93.0355
      1549.9080           96.8112           90.0919
      1550.0604           96.3802           87.3596
      1550.2128           97.3454           92.1951
      1550.3652           96.6669           91.7947
      1550.5176           96.5581           90.8287
      1550.6700           95.4019           90.7278
      1550.8224           96.2981           90.3308
      1550.9748           93.8156           90.7681
      1551.1272           94.9396           90.1450
      1551.2796           93.7108           95.7032
      1551.4320           95.9633           94.6930
      1551.5844           92.9661           93.6445
      1551.7368           92.8218           95.6875
      1551.8892           91.0981           98.3175
      1552.0416           99.0063           93.6047
      1552.1940          100.0206           88.8982
      1552.3464          100.9770           86.4294
      1552.4988          101.2372           86.0797
      1552.6512          102.5520           82.5772
      1552.8036          102.2181           80.2273
      1552.9560          102.0083           81.3720
      1553.1084          102.0970           80.6219
      1553.2608           99.8721           78.2742
      1553.4132          101.0774           76.4489
      1553.5656           99.4769           73.0777
      1553.7180           87.2937           73.0416
      1553.8704           69.3067           74.5281
      1554.0228           68.3318           74.9148
      1554.1752           66.8675           72.8358
      1554.3276           68.3130           72.8492
      1554.4800           70.1656           72.2500
      1554.6324           69.7203           73.0874
      1554.7848           70.8786           70.3936
      1554.9372           69.5213           67.7187
      1555.0896           69.7455           68.1341
      1555.2420           69.6273           69.9073
      1555.3944           69.3082           72.2455
      1555.5468           68.4319           70.6505
      1555.6992           64.9162           69.1919
      1555.8516           63.8453           70.0209
      1556.0040           63.9567           67.9280
      1556.1564           64.7289           68.1326
      1556.3088           64.8436           68.2126
      1556.4612           65.7652           66.9751
      1556.6136           66.0207           66.4389
      1556.7660           66.5075           69.8117
      1556.9184           66.9124           75.1354
      1557.0708           67.8344           75.9369
      1557.2232           68.1871           75.9526
      1557.3756           68.3593           74.1117
      1557.5280           68.1540           73.6551
      1557.6804           67.1990           67.2123
      1557.8328           66.3904           65.6648
      1557.9852           65.7395           66.9836
      1558.1376           65.1666           68.6294
      1558.2900           64.7484           70.6025
      1558.4424           63.4795           69.8477
      1558.5948           61.8713           69.3081
      1558.7472           61.5884           67.3139
      1558.8996           61.1584           64.2747
      1559.0520           58.1192           63.8324
      1559.2044           60.6753           66.5799
      1559.3568           62.7662           66.4511
      1559.5092           77.2671           65.9053
      1559.6616           91.7679           69.2586
      1559.8140          106.2688           82.5496
      1559.9664          110.0836          104.6299
      1560.1188          112.3820          129.9302
      1560.2712          117.6799          134.9608
      1560.4236          120.6754          135.7187
      1560.5760          123.4133          141.5497
      1560.7284          107.9619          149.6473
      1560.8808          111.8481          159.3093
      1561.0332          114.8223          161.7555
      1561.1856          116.4991          163.4047
      1561.3380          117.1148          161.6942
      1561.4904          117.6809          161.8728
      1561.6428          117.5795          165.0226
      1561.7952          117.4285          160.9765
      1561.9476          116.6269          153.4010
      1562.1000          114.4426          136.4231
      1562.2524          116.0471          126.4771
      1562.4048          112.5681          115.3149
      1562.5572           83.2374          112.3288
      1562.7096           84.2799          119.5861
      1562.8620           86.8960          126.5210
      1563.0144          125.6630          134.4036
      1563.1668          118.7249          149.3059
      1563.3192          114.4856          162.5502
      1563.4716          114.8018          171.4588
      1563.6240          115.2864          168.2077
      1563.7764          114.8454          173.2841
      1563.9288          115.1069          170.5317
      1564.0812          116.2678          174.1127
      1564.2336          116.1617          164.7807
      1564.3860          116.2252          163.2384
      1564.5384          115.7334          159.9160
      1564.6908          115.6824          162.7722
      1564.8432          115.6515          165.5287
      1564.9956          114.6324          162.4779
      1565.1480          114.0389          166.0824
      1565.3004          113.3024          165.2786
      1565.4528          112.7598          170.9848
      1565.6052          113.0727          165.5287
