~Version
VERS .        2      : CWLS LAS Version 2.0
WRAP .        NO     : One Line per Depth Step 
~Well
#MNEM.UNIT       Data Type                    Information
#---------       ---------                    -------------------------------
 STRT.M 1119.8352 :
 STOP.M 2184.8064 :
 STEP.M 0.1524 :
 NULL. -999.2500 :
 COMP.      LAM SON JOC             : COMPANY NAME
 WELL.      W4                      : WELL NAME
 FLD .      DONG DO                 : FIELD NAME
 LOC .      CUU LONG BASIN          : LOCATION
 PROV.      OFFSHORE                : PROVINCE
 COUN.      VIETNAM                 : COUNTY
 STATE.     VUNG TAU                : 
 CTRY.      VIETNAM                 : COUNTRY
 SRVC.      DUYENBEO                : SERVICE COMPANY
 DATE.      04 MAR 2011             : SERVICE DATE
 LOSTARTIME.04 03 2011              : 
 UWI.       0123456789BEO0126       : UNIQUE WELL ID
 API.       9876543210126           : 
 LIC .      00074                   : LICENCE NUMBER
 LATI.      14                      : LATITUDE
 LONG.      1414                    : LONGITUDE
 GDAT.      LAVENDER4               : GEODETIC DATUM
~Curve
#MNEM.UNIT       API Code            Curve    Description
#--------        --------------      -----    -------------------
DEPTH.M  :
DTCO3.US/F  :
ECGR.GAPI  :
~Parameter
#MNEM.UNIT       Value                        Description
#---------       ---------                    -------------
~A  DEPTH   DTCO3   ECGR
# ...
      1612.6968           56.3384           61.5573
      1612.8492           56.0864           62.9140
      1613.0016           56.0858           65.2529
      1613.1540           55.7497           66.1706
      1613.3064           55.9231           66.0384
      1613.4588           56.6325           69.1210
      1613.6112           56.6436           65.3082
      1613.7636           57.1714           64.5104
      1613.9160           56.8758           64.0071
      1614.0684           56.9944           65.9268
      1614.2208           56.4141           67.7721
      1614.3732           56.0413           66.1056
      1614.5256           56.0917           67.6876
      1614.6780           56.1644           65.9930
      1614.8304           56.3431           64.4271
      1614.9828           56.4844           65.6055
      1615.1352           56.8397           61.9760
      1615.2876           56.5464           62.0901
      1615.4400           56.6362           58.4965
      1615.5924           56.6387           63.0371
      1615.7448           57.0584           65.5397
      1615.8972           58.1068           67.2735
      1616.0496           57.6567           68.8826
      1616.2020           57.6912           67.4178
      1616.3544           57.6840           67.7642
      1616.5068           57.1450           68.9663
      1616.6592           56.4887           68.6914
      1616.8116           56.4345           68.0471
      1616.9640           56.1096           62.6404
      1617.1164           55.8612           62.9996
      1617.2688           55.9622           59.4693
      1617.4212           55.2422           59.7707
      1617.5736           54.7942           60.3896
      1617.7260           54.4631           62.4146
      1617.8784           55.2085           61.0922
      1618.0308           55.4374           59.5116
      1618.1832           60.1399           61.1482
      1618.3356           59.2167           64.8888
      1618.4880           59.8903           66.9661
      1618.6404           60.1303           67.9109
      1618.7928           61.4677           70.4191
      1618.9452           62.1819           70.1329
      1619.0976           63.4129           71.3181
      1619.2500           62.5287           68.0893
      1619.4024           62.8540           69.3792
      1619.5548           63.6432           67.4647
      1619.7072           64.0314           71.5390
      1619.8596           64.6193           71.0097
      1620.0120           64.6321           69.8844
      1620.1644           63.7123           64.9834
      1620.3168           63.8161           67.7584
      1620.4692           57.5406           70.6533
      1620.6216           57.3238           72.2494
      1620.7740           64.5292           68.8821
      1620.9264           65.6082           68.9765
      1621.0788           65.2065           67.9896
      1621.2312           67.5378           69.7454
      1621.3836           66.7222           70.4140
      1621.5360           66.3192           73.7171
      1621.6884           66.5076           75.7750
      1621.8408           65.6311           77.1639
      1621.9932           65.7035           77.0933
      1622.1456           65.0035           75.4924
      1622.2980           63.5497           74.1114
      1622.4504           64.1781           73.8354
      1622.6028           63.0295           72.0490
      1622.7552           63.1332           71.2636
      1622.9076           63.8748           68.4403
      1623.0600           64.1190           66.9038
      1623.2124           67.7923           68.7691
      1623.3648           65.0734           70.2469
      1623.5172           65.6505           71.7833
      1623.6696           64.6903           69.5004
      1623.8220           65.6238           68.2436
      1623.9744           66.0083           66.2702
      1624.1268           62.6115           65.8317
      1624.2792           64.9735           67.9437
      1624.4316           65.5686           68.1666
      1624.5840           65.3853           66.9776
      1624.7364           64.8836           68.1837
      1624.8888           66.6792           72.6817
      1625.0412           73.9377           74.6447
      1625.1936           73.1382           75.7915
      1625.3460           68.4126           73.2569
      1625.4984           67.6392           73.2207
      1625.6508           66.6533           70.1717
      1625.8032           66.3424           71.8156
      1625.9556           65.3186           71.3165
      1626.1080           64.1017           69.7661
      1626.2604           62.2873           68.6986
      1626.4128           62.6531           67.5262
      1626.5652           61.7746           65.6541
      1626.7176           60.9840           64.2899
      1626.8700           61.6434           64.0419
      1627.0224           64.4820           65.8497
      1627.1748           72.1460           67.1165
      1627.3272           86.7569           68.6130
      1627.4796          101.3679           71.2284
      1627.6320          101.2479           72.0959
      1627.7844          102.7243           77.3967
      1627.9368          102.3137           80.3964
      1628.0892          101.2116           80.5324
      1628.2416           97.4076           80.2591
      1628.3940          101.5402           81.9510
      1628.5464          102.4082           87.5051
      1628.6988          101.9913           86.0864
      1628.8512          101.9548           83.9217
      1629.0036          102.7327           80.6883
      1629.1560          102.2981           82.9173
      1629.3084          102.0761           84.9111
      1629.4608          101.6500           87.4421
      1629.6132          100.4393           86.4480
      1629.7656           99.0797           84.0650
      1629.9180           97.9970           82.0022
      1630.0704           96.5650           79.3380
      1630.2228           95.7261           81.2854
      1630.3752           96.3293           83.7139
      1630.5276           96.1069           84.3405
      1630.6800           96.5748           81.8361
      1630.8324           97.0500           79.9424
      1630.9848           97.7514           84.6115
      1631.1372           99.7159           87.3787
      1631.2896          100.0741           87.5036
      1631.4420          100.7579           86.7443
      1631.5944          102.3516           87.1423
      1631.7468          102.7105           87.6331
      1631.8992          103.3096           93.6937
      1632.0516          104.5678           95.6255
      1632.2040          104.8201           93.5270
      1632.3564          105.1707           84.1715
      1632.5088          105.4154           81.9862
      1632.6612          105.3652           85.1433
      1632.8136          105.2097           84.9384
      1632.9660          105.2615           84.3262
      1633.1184          105.1841           84.0506
      1633.2708          105.1663           86.8311
      1633.4232          105.3440           86.8568
      1633.5756          105.4380           86.4764
      1633.7280          105.2112           84.6593
      1633.8804          105.0834           81.1309
      1634.0328          104.2111           81.6580
      1634.1852          104.8053           80.0421
      1634.3376          103.6846           82.6638
      1634.4900          103.4627           83.2948
      1634.6424          103.8395           83.7783
      1634.7948          102.7796           86.4584
      1634.9472          102.6998           90.3898
      1635.0996          102.4723           96.0166
      1635.2520          103.3013           94.2930
      1635.4044          102.3683           86.7694
      1635.5568          102.2027           81.9216
      1635.7092          101.9159           85.5969
      1635.8616          101.7748           90.4101
      1636.0140          102.2702           95.9599
