~Version
VERS .        2      : CWLS LAS Version 2.0
WRAP .        NO     : One Line per Depth Step 
~Well
#MNEM.UNIT       Data Type                    Information
#---------       ---------                    -------------------------------
 STRT.M 1119.8352 :
 STOP.M 2184.8064 :
 STEP.M 0.1524 :
 NULL. -999.2500 :
 COMP.      LAM SON JOC             : COMPANY NAME
 WELL.      W4                      : WELL NAME
 FLD .      DONG DO                 : FIELD NAME
 LOC .      CUU LONG BASIN          : LOCATION
 PROV.      OFFSHORE                : PROVINCE
 COUN.      VIETNAM                 : COUNTY
 STATE.     VUNG TAU                : 
 CTRY.      VIETNAM                 : COUNTRY
 SRVC.      DUYENBEO                : SERVICE COMPANY
 DATE.      04 MAR 2011             : SERVICE DATE
 LOSTARTIME.04 03 2011              : 
 UWI.       0123456789BEO0126       : UNIQUE WELL ID
 API.       9876543210126           : 
 LIC .      00074                   : LICENCE NUMBER
 LATI.      14                      : LATITUDE
 LONG.      1414                    : LONGITUDE
 GDAT.      LAVENDER4               : GEODETIC DATUM
~Curve
#MNEM.UNIT       API Code            Curve    Description
#--------        --------------      -----    -------------------
DEPTH.M  :
DTCO3.US/F  :
ECGR.GAPI  :
~Parameter
#MNEM.UNIT       Value                        Description
#---------       ---------                    -------------
~A  DEPTH   DTCO3   ECGR
# ...
      1471.8792          102.3525           92.9539
      1472.0316          103.2660           98.4462
      1472.1840          103.0303           93.9029
      1472.3364          103.0286           95.4414
      1472.4888          102.8364           99.7123
      1472.6412          102.3208          103.6735
      1472.7936          101.4983          104.5032
      1472.9460          100.9497           98.4068
      1473.0984           99.9778           99.7462
      1473.2508           97.4237          100.6087
      1473.4032           96.9982          112.8244
      1473.5556           96.2757          123.4930
      1473.7080           95.6091          133.0256
      1473.8604           95.6934          133.5022
      1474.0128           95.8631          133.5017
      1474.1652           96.1069          135.2143
      1474.3176           95.7056          139.0678
      1474.4700           97.6731          142.0314
      1474.6224           97.6001          146.2639
      1474.7748           99.2718          148.4945
      1474.9272          102.8113          147.0425
      1475.0796          102.9734          139.9925
      1475.2320          103.2137          141.4691
      1475.3844          104.7938          146.8694
      1475.5368          105.2312          140.4550
      1475.6892          106.3524          135.4015
      1475.8416          112.6669          125.5993
      1475.9940          113.8358          109.9163
      1476.1464          113.3222           99.5202
      1476.2988          112.3485          100.7776
      1476.4512          112.1300          109.2190
      1476.6036          111.7814          134.9619
      1476.7560          113.4042          159.0627
      1476.9084          112.6244          171.4459
      1477.0608          111.6348          165.0658
      1477.2132          107.6955          166.0347
      1477.3656          111.1427          162.1137
      1477.5180          111.5399          158.9330
      1477.6704          111.6175          155.6363
      1477.8228          111.5424          146.5849
      1477.9752          110.5586          146.8609
      1478.1276          109.6995          144.5135
      1478.2800          108.2857          146.8760
      1478.4324          107.5277          140.6512
      1478.5848          105.9522          134.4994
      1478.7372          101.6171          127.1204
      1478.8896           91.0481          118.1100
      1479.0420           87.5861          116.1899
      1479.1944           86.6384          110.9339
      1479.3468           91.3493          108.5125
      1479.4992           86.0609          104.6304
      1479.6516           84.5987          102.3626
      1479.8040           84.5834          106.0923
      1479.9564           84.4720          110.0339
      1480.1088           84.1992          115.9743
      1480.2612           85.2729          106.2557
      1480.4136           85.4105          101.5981
      1480.5660           85.4060           96.8421
      1480.7184           84.3977           99.6938
      1480.8708           85.1224           94.3382
      1481.0232           85.4020           92.6227
      1481.1756           87.6858           96.7873
      1481.3280           95.8175          104.7124
      1481.4804           97.6989          113.2882
      1481.6328           97.9810          112.2624
      1481.7852           98.3023          106.6961
      1481.9376           98.8387           98.6916
      1482.0900           98.5216           96.2743
      1482.2424           98.8144           95.8153
      1482.3948           97.9597           91.8769
      1482.5472           96.0836           86.8953
      1482.6996           88.7993           87.0424
      1482.8520           89.7037           89.0839
      1483.0044           89.9607           85.3446
      1483.1568           89.3094           80.4883
      1483.3092           90.5623           79.4560
      1483.4616           92.8798           80.6571
      1483.6140           94.7863           88.3658
      1483.7664           96.6182           91.3541
      1483.9188          104.2630           94.9418
      1484.0712          104.0478           93.1879
      1484.2236          101.2746           91.8126
      1484.3760          101.6526           90.5811
      1484.5284          101.8630           90.0146
      1484.6808          101.7231           92.6401
      1484.8332          101.7452           94.5130
      1484.9856          102.6919           96.0407
      1485.1380          103.3171           94.6856
      1485.2904          102.0523           96.3240
      1485.4428          102.3320           94.3482
      1485.5952          102.5949           91.7163
      1485.7476          102.7234           90.4269
      1485.9000          102.8338           91.4392
      1486.0524          103.1861           96.2935
      1486.2048          103.2369           96.4614
      1486.3572          103.1282           95.9199
      1486.5096          103.1445           92.4416
      1486.6620          103.1596           93.3047
      1486.8144          103.2858           96.1242
      1486.9668          103.6673           93.9725
      1487.1192          103.8020           93.9831
      1487.2716          103.8590           90.6307
      1487.4240          104.4653           91.7684
      1487.5764          105.0672           91.0411
      1487.7288          105.4621           90.9048
      1487.8812          105.4827           92.2924
      1488.0336          105.7467           89.4311
      1488.1860          105.8115           86.2052
      1488.3384          105.9937           85.5736
      1488.4908          105.6184           87.5651
      1488.6432          105.5697           87.4820
      1488.7956          105.2400           86.8475
      1488.9480          104.8947           86.3659
      1489.1004          104.6973           90.6642
      1489.2528          104.3521           88.2526
      1489.4052          104.0958           88.6933
      1489.5576          103.9519           87.6978
      1489.7100          104.1224           89.8777
      1489.8624          104.1727           90.0654
      1490.0148          104.4564           91.0231
      1490.1672          104.6353           88.3164
      1490.3196          104.9595           86.4779
      1490.4720          105.3879           84.2020
      1490.6244          105.5365           87.8837
      1490.7768          105.6155           88.6828
      1490.9292          106.1358           88.8490
      1491.0816          106.4506           89.7129
      1491.2340          106.6622           92.8398
      1491.3864          107.6237           94.1115
      1491.5388          106.5140           91.0631
      1491.6912          107.3459           89.0091
      1491.8436          107.2974           87.0672
      1491.9960          107.0236           86.0477
      1492.1484          107.1730           88.7762
      1492.3008          106.6097           92.8221
      1492.4532          106.6919           93.4812
      1492.6056          106.8015           90.8901
      1492.7580          107.6188           89.5811
      1492.9104          106.5236           88.9782
      1493.0628          106.2322           87.0353
      1493.2152          108.2506           81.9873
      1493.3676          106.3940           81.9873
      1493.5200          106.5853           79.9103
      1493.6724          107.0853           83.3113
      1493.8248          106.5108           83.6574
      1493.9772          106.0524           83.8741
      1494.1296          106.3471           82.1918
      1494.2820          106.9001           81.2003
      1494.4344          107.2050           84.1630
      1494.5868           94.5105           83.0519
      1494.7392           90.8218           82.2941
      1494.8916           88.3015           83.0688
      1495.0440           85.6083           83.6105
      1495.1964           83.2673           88.7469
