~Version
VERS .        2      : CWLS LAS Version 2.0
WRAP .        NO     : One Line per Depth Step 
~Well
#MNEM.UNIT       Data Type                    Information
#---------       ---------                    -------------------------------
 STRT.M 1119.8352 :
 STOP.M 2184.8064 :
 STEP.M 0.1524 :
 NULL. -999.2500 :
 COMP.      LAM SON JOC             : COMPANY NAME
 WELL.      W4                      : WELL NAME
 FLD .      DONG DO                 : FIELD NAME
 LOC .      CUU LONG BASIN          : LOCATION
 PROV.      OFFSHORE                : PROVINCE
 COUN.      VIETNAM                 : COUNTY
 STATE.     VUNG TAU                : 
 CTRY.      VIETNAM                 : COUNTRY
 SRVC.      DUYENBEO                : SERVICE COMPANY
 DATE.      04 MAR 2011             : SERVICE DATE
 LOSTARTIME.04 03 2011              : 
 UWI.       0123456789BEO0126       : UNIQUE WELL ID
 API.       9876543210126           : 
 LIC .      00074                   : LICENCE NUMBER
 LATI.      14                      : LATITUDE
 LONG.      1414                    : LONGITUDE
 GDAT.      LAVENDER4               : GEODETIC DATUM
~Curve
#MNEM.UNIT       API Code            Curve    Description
#--------        --------------      -----    -------------------
DEPTH.M  :
DTCO3.US/F  :
ECGR.GAPI  :
~Parameter
#MNEM.UNIT       Value                        Description
#---------       ---------                    -------------
~A  DEPTH   DTCO3   ECGR
# ...
      1941.2712           87.1122           67.5348
      1941.4236           87.0796           69.3582
      1941.5760           87.4881           72.5376
      1941.7284           87.7332           72.6068
      1941.8808           88.2460           74.8731
      1942.0332           88.7423           75.6295
      1942.1856           89.3900           77.2619
      1942.3380           89.8358           75.1181
      1942.4904           89.8997           73.5055
      1942.6428           89.9174           72.5827
      1942.7952           90.0630           75.1625
      1942.9476           89.9321           83.1549
      1943.1000           89.4695           90.9376
      1943.2524           90.3090           96.6474
      1943.4048           87.2237           94.8320
      1943.5572           90.6227           93.5131
      1943.7096           87.2982           93.0494
      1943.8620           87.1585           99.4591
      1944.0144           86.7549          102.3134
      1944.1668           91.4465          103.6257
      1944.3192           91.6859           99.9328
      1944.4716           91.5695           96.0399
      1944.6240           91.4967           90.1875
      1944.7764           91.6689           84.0298
      1944.9288           91.2852           77.7308
      1945.0812           91.8530           69.3977
      1945.2336           92.1916           68.7868
      1945.3860           92.5363           68.9489
      1945.5384           92.6481           68.8578
      1945.6908           93.1131           68.1474
      1945.8432           93.3138           67.3056
      1945.9956           95.0708           70.0488
      1946.1480           94.8992           71.2064
      1946.3004           92.2730           72.1094
      1946.4528           91.4128           71.3624
      1946.6052           91.6627           71.8396
      1946.7576           90.7702           71.9189
      1946.9100           90.4929           73.6349
      1947.0624           90.4754           71.6336
      1947.2148           90.4812           70.3179
      1947.3672           89.9410           68.2393
      1947.5196           90.6568           68.9249
      1947.6720           91.3334           66.4384
      1947.8244           90.2111           67.9952
      1947.9768           90.3838           65.1060
      1948.1292           90.5238           69.6745
      1948.2816           90.8104           70.9705
      1948.4340           91.4931           70.2053
      1948.5864           91.9238           67.8102
      1948.7388           92.6004           68.4001
      1948.8912           93.5509           68.9232
      1949.0436           96.4930           67.7913
      1949.1960           96.7670           64.2259
      1949.3484           94.8355           65.7354
      1949.5008           95.2021           72.9764
      1949.6532           98.0515           80.4143
      1949.8056           95.8277           86.1854
      1949.9580           97.5983           84.6090
      1950.1104           98.1056           78.5336
      1950.2628           96.2786           80.9987
      1950.4152           96.3398           80.6397
      1950.5676           97.9717           84.0461
      1950.7200           97.7529           80.8706
      1950.8724           97.6313           81.8276
      1951.0248           97.5521           76.3177
      1951.1772           97.3943           75.0642
      1951.3296           97.4789           68.1537
      1951.4820           97.3780           70.3073
      1951.6344           97.2494           67.8523
      1951.7868           97.2139           71.3855
      1951.9392           96.9229           72.6017
      1952.0916           96.7080           74.9470
      1952.2440           96.7529           87.5713
      1952.3964           97.7870           98.3511
      1952.5488           97.7557          109.4271
      1952.7012           97.6411          110.9125
      1952.8536           97.4490          106.8109
      1953.0060           98.0277           96.2929
      1953.1584           98.6123           88.3565
      1953.3108           98.7597           87.0727
      1953.4632           99.2707           93.5949
      1953.6156           99.2539           92.8004
      1953.7680           98.9508           92.0380
      1953.9204           99.0648           88.4511
      1954.0728           98.9981           91.4208
      1954.2252           99.0747           93.3985
      1954.3776           98.2549           93.4479
      1954.5300           97.8113           92.1642
      1954.6824           96.7698           92.4206
      1954.8348           97.1898           94.7412
      1954.9872           96.1552           94.2280
      1955.1396           95.7843           94.2280
      1955.2920           94.1502           89.8619
      1955.4444           92.6580           89.5660
      1955.5968           98.2727           94.5460
      1955.7492           92.8977           94.1712
      1955.9016           93.4200           88.9128
      1956.0540           93.7879           74.5010
      1956.2064           93.7246           73.0453
      1956.3588           95.6171           74.8169
      1956.5112           95.2568           75.8337
      1956.6636           95.6198           73.1662
      1956.8160           96.1877           69.3027
      1956.9684           94.5703           68.9826
      1957.1208           94.6232           70.5875
      1957.2732           94.2565           71.2756
      1957.4256           93.9120           75.4366
      1957.5780           93.9037           75.8191
      1957.7304           93.0189           79.3153
      1957.8828           92.4064           83.1966
      1958.0352           92.5420           87.0276
      1958.1876           92.6320           85.8888
      1958.3400           92.3786           83.1512
      1958.4924           93.3108           77.3980
      1958.6448           92.7955           71.8628
      1958.7972           92.3916           66.9925
      1958.9496           92.6891           67.9628
      1959.1020           92.9763           70.4378
      1959.2544           93.1843           75.8309
      1959.4068           92.7616           76.1074
      1959.5592           92.7131           77.7322
      1959.7116           89.7676           70.9348
      1959.8640           90.0549           71.3526
      1960.0164           89.6665           70.9730
      1960.1688           91.4926           72.8841
      1960.3212           90.4847           75.4236
      1960.4736           92.8760           79.6227
      1960.6260           93.2098           84.9864
      1960.7784           93.1863           93.3276
      1960.9308           93.4481           99.9731
      1961.0832           90.0893          105.9007
      1961.2356           90.9488          107.6636
      1961.3880           89.9545          106.1063
      1961.5404           89.8106          103.9298
      1961.6928           90.0126           99.7547
      1961.8452           90.0104           92.5196
      1961.9976           89.3027           96.8613
      1962.1500           89.2017           93.6702
      1962.3024           89.9724           94.2494
      1962.4548           90.0287           89.0197
      1962.6072           90.1076           87.2527
      1962.7596           90.7500           88.7933
      1962.9120           93.1256           96.4682
      1963.0644           94.5318          101.1330
      1963.2168           97.0067          108.3024
      1963.3692           99.4844          106.9226
      1963.5216          103.7620          114.9376
      1963.6740          103.8954          111.7310
      1963.8264          103.9608          113.3941
      1963.9788          108.5471          108.4996
      1964.1312          108.9025          109.6926
      1964.2836          106.1943          106.1063
      1964.4360          108.5721          103.3004
      1964.5884          108.1810           93.2438
