~Version
VERS .        2      : CWLS LAS Version 2.0
WRAP .        NO     : One Line per Depth Step 
~Well
#MNEM.UNIT       Data Type                    Information
#---------       ---------                    -------------------------------
 STRT.M 1119.8352 :
 STOP.M 2184.8064 :
 STEP.M 0.1524 :
 NULL. -999.2500 :
 COMP.      LAM SON JOC             : COMPANY NAME
 WELL.      W4                      : WELL NAME
 FLD .      DONG DO                 : FIELD NAME
 LOC .      CUU LONG BASIN          : LOCATION
 PROV.      OFFSHORE                : PROVINCE
 COUN.      VIETNAM                 : COUNTY
 STATE.     VUNG TAU                : 
 CTRY.      VIETNAM                 : COUNTRY
 SRVC.      DUYENBEO                : SERVICE COMPANY
 DATE.      04 MAR 2011             : SERVICE DATE
 LOSTARTIME.04 03 2011              : 
 UWI.       0123456789BEO0126       : UNIQUE WELL ID
 API.       9876543210126           : 
 LIC .      00074                   : LICENCE NUMBER
 LATI.      14                      : LATITUDE
 LONG.      1414                    : LONGITUDE
 GDAT.      LAVENDER4               : GEODETIC DATUM
~Curve
#MNEM.UNIT       API Code            Curve    Description
#--------        --------------      -----    -------------------
DEPTH.M  :
DTCO3.US/F  :
ECGR.GAPI  :
~Parameter
#MNEM.UNIT       Value                        Description
#---------       ---------                    -------------
~A  DEPTH   DTCO3   ECGR
      1119.8352          121.2505           60.5977
      1119.9876          121.2505           59.6484
      1120.1400          121.2505           57.8931
      1120.2924          121.2505           53.1725
      1120.4448          121.2505           54.7809
      1120.5972          121.2505           57.2624
      1120.7496          121.2505           59.4386
      1120.9020          121.2505           59.4567
      1121.0544          121.2505           59.0528
      1121.2068          121.2505           58.5971
      1121.3592          121.2505           58.3175
      1121.5116          121.2505           57.1129
      1121.6640          121.2505           60.5758
      1121.8164          121.2505           60.8155
      1121.9688          121.2505           62.9461
      1122.1212          121.2505           59.9336
      1122.2736          121.2505           60.5084
      1122.4260          121.2505           59.1659
      1122.5784          121.2505           58.2961
      1122.7308          121.2505           59.1803
      1122.8832          121.2505           58.2670
      1123.0356          121.2505           57.5221
      1123.1880          121.2505           57.5221
      1123.3404          121.2505           58.9408
      1123.4928          121.2505           61.2586
      1123.6452          121.2505           61.1489
      1123.7976          121.2505           58.9389
      1123.9500          121.2505           58.4603
      1124.1024          121.2505           56.2167
      1124.2548          120.9925           55.8632
      1124.4072          121.8553           55.4398
      1124.5596          122.0748           57.1124
      1124.7120          125.8483           57.7620
      1124.8644          124.1439           61.3913
      1125.0168          123.3129           59.7146
      1125.1692          120.7202           59.8436
      1125.3216          117.9132           57.1352
      1125.4740          126.2694           57.7837
      1125.6264          126.1207           61.6523
      1125.7788          116.6138           65.6278
      1125.9312          125.8950           73.0965
      1126.0836          123.1949           81.8408
      1126.2360          117.7400           87.1121
      1126.3884          121.5781           89.5412
      1126.5408          120.3373           89.1836
      1126.6932          120.7928           89.6381
      1126.8456          121.2568           86.4445
      1126.9980          121.3471           84.3067
      1127.1504          121.5471           87.0246
      1127.3028          121.4920           89.0542
      1127.4552          121.5266           88.7371
      1127.6076          121.6991           84.2195
      1127.7600          121.9268           76.7390
      1127.9124          122.3154           65.9289
      1128.0648          122.6941           58.1308
      1128.2172          122.8020           56.1317
      1128.3696          122.7749           58.6768
      1128.5220          122.8039           57.9218
      1128.6744          122.9905           55.1211
      1128.8268          124.1712           55.2416
      1128.9792          124.3792           56.4660
      1129.1316          124.7126           58.0237
      1129.2840          124.8090           56.4451
      1129.4364          125.3244           55.4070
      1129.5888          124.9155           57.7636
      1129.7412          124.4396           59.0698
      1129.8936          123.4954           59.2007
      1130.0460          122.8745           59.7469
      1130.1984          121.9047           61.0912
      1130.3508          121.2161           56.6775
      1130.5032          120.3926           54.7459
      1130.6556          120.0353           51.0525
      1130.8080          119.8933           57.8935
      1130.9604          119.9213           59.8510
      1131.1128          119.3495           63.2658
      1131.2652          119.7843           61.4508
      1131.4176          119.6473           59.9245
      1131.5700          119.7025           60.4137
      1131.7224          120.2435           62.4516
      1131.8748          120.3052           66.4260
      1132.0272          120.1047           66.9242
      1132.1796          120.1921           64.0857
      1132.3320          120.8127           60.5530
      1132.4844          120.9629           57.5905
      1132.6368          121.0680           56.7939
      1132.7892          121.2370           59.2759
      1132.9416          121.4331           59.0310
      1133.0940          121.8396           58.9157
      1133.2464          122.0452           59.6358
      1133.3988          122.3676           61.4508
      1133.5512          122.6158           62.2439
      1133.7036          122.4174           62.0402
      1133.8560          122.3068           62.0292
      1134.0084          122.0474           61.8814
      1134.1608          122.2861           61.7317
      1134.3132          122.3326           61.1748
      1134.4656          122.2537           62.0011
      1134.6180          122.4491           63.4076
      1134.7704          122.5307           61.8700
      1134.9228          122.5118           63.5251
      1135.0752          122.4984           62.3583
      1135.2276          122.3942           63.8313
      1135.3800          122.2384           61.7403
      1135.5324          122.0622           60.3284
      1135.6848          121.9408           61.7202
      1135.8372          121.7387           64.9525
      1135.9896          121.6998           68.1714
      1136.1420          121.4963           66.9140
      1136.2944          121.4221           67.0171
      1136.4468          121.2253           63.3928
      1136.5992          121.2073           61.5589
      1136.7516          121.5486           59.3765
      1136.9040          121.8583           60.1765
      1137.0564          122.0877           58.3823
      1137.2088          122.2666           59.9391
      1137.3612          121.4898           59.7947
      1137.5136          120.7908           68.0459
      1137.6660          120.2733           69.3878
      1137.8184          119.4007           73.6565
      1137.9708          117.6844           69.7638
      1138.1232          116.3722           65.6215
      1138.2756          115.6551           61.1859
      1138.4280          114.6075           60.8315
      1138.5804          113.7822           61.7362
      1138.7328          113.2456           59.0165
      1138.8852          112.6093           57.5702
      1139.0376          112.7707           57.6999
      1139.1900          112.9709           58.9756
      1139.3424          113.1761           57.4600
      1139.4948          113.4779           56.9552
      1139.6472          114.2833           59.8094
      1139.7996          115.0927           62.8729
      1139.9520          115.6906           64.1975
      1140.1044          116.6380           62.7517
      1140.2568          119.1797           62.4398
      1140.4092          120.4951           58.0234
      1140.5616          121.5585           56.5835
      1140.7140          122.3399           51.7782
      1140.8664          124.0882           51.4871
      1141.0188          123.7098           49.9525
      1141.1712          123.7879           52.1391
      1141.3236          123.5510           55.6441
      1141.4760          123.6031           56.2899
      1141.6284          122.9698           61.5955
      1141.7808          123.0457           61.8700
      1141.9332          122.9755           66.0075
      1142.0856          122.7719           64.8725
      1142.2380          122.5767           66.2342
      1142.3904          122.3888           62.9601
      1142.5428          122.4478           58.6706
      1142.6952          122.5382           55.6330
      1142.8476          122.7020           56.6206
      1143.0000          122.9064           61.1690
      1143.1524          122.9219           63.5228
