~Version
VERS .        2      : CWLS LAS Version 2.0
WRAP .        NO     : One Line per Depth Step 
~Well
#MNEM.UNIT       Data Type                    Information
#---------       ---------                    -------------------------------
 STRT.M 1119.8352 :
 STOP.M 2184.8064 :
 STEP.M 0.1524 :
 NULL. -999.2500 :
 COMP.      LAM SON JOC             : COMPANY NAME
 WELL.      W4                      : WELL NAME
 FLD .      DONG DO                 : FIELD NAME
 LOC .      CUU LONG BASIN          : LOCATION
 PROV.      OFFSHORE                : PROVINCE
 COUN.      VIETNAM                 : COUNTY
 STATE.     VUNG TAU                : 
 CTRY.      VIETNAM                 : COUNTRY
 SRVC.      DUYENBEO                : SERVICE COMPANY
 DATE.      04 MAR 2011             : SERVICE DATE
 LOSTARTIME.04 03 2011              : 
 UWI.       0123456789BEO0126       : UNIQUE WELL ID
 API.       9876543210126           : 
 LIC .      00074                   : LICENCE NUMBER
 LATI.      14                      : LATITUDE
 LONG.      1414                    : LONGITUDE
 GDAT.      LAVENDER4               : GEODETIC DATUM
~Curve
#MNEM.UNIT       API Code            Curve    Description
#--------        --------------      -----    -------------------
DEPTH.M  :
DTCO3.US/F  :
ECGR.GAPI  :
~Parameter
#MNEM.UNIT       Value                        Description
#---------       ---------                    -------------
~A  DEPTH   DTCO3   ECGR
# ...
      2011.6800           87.6705           84.3709
      2011.8324           87.9467           81.9512
      2011.9848           85.5379           84.0664
      2012.1372           87.3265           87.8921
      2012.2896           87.7675           87.9727
      2012.4420           89.0218           91.1703
      2012.5944           89.7072           96.3621
      2012.7468           89.7625          101.2661
      2012.8992           90.1694          103.8933
      2013.0516           92.7407           99.2339
      2013.2040           91.0764          100.6694
      2013.3564           90.9365           97.8155
      2013.5088           90.4067           94.2666
      2013.6612           90.4441           87.6329
      2013.8136           90.1071           84.2294
      2013.9660           88.6554           86.4062
      2014.1184           88.6819           85.2730
      2014.2708           88.1514           89.7542
      2014.4232           87.4437           85.3542
      2014.5756           88.0994           83.3500
      2014.7280           88.1616           75.5089
      2014.8804           88.5773           79.5348
      2015.0328           88.8061           81.0678
      2015.1852           90.4518           80.0139
      2015.3376           87.2712           74.7663
      2015.4900           87.8252           77.6856
      2015.6424           86.7857           77.2199
      2015.7948           86.6139           77.2584
      2015.9472           87.5483           70.3951
      2016.0996           84.2189           69.8291
      2016.2520           84.0594           69.9024
      2016.4044           85.2059           70.7080
      2016.5568           88.0143           71.7958
      2016.7092           88.1489           70.4587
      2016.8616           88.0291           67.1398
      2017.0140           88.3652           62.6177
      2017.1664           88.4274           60.3097
      2017.3188           88.3186           62.3136
      2017.4712           88.6609           63.0933
      2017.6236           89.8222           65.7225
      2017.7760           90.1110           73.1725
      2017.9284           90.1822           79.0739
      2018.0808           90.5280           77.2971
      2018.2332           91.9036           74.5004
      2018.3856           92.2736           73.9979
      2018.5380           92.1703           79.9697
      2018.6904           94.1357           76.1479
      2018.8428           93.8705           77.4834
      2018.9952           87.9508           80.1489
      2019.1476           86.2515           86.1957
      2019.3000           85.5043           85.1579
      2019.4524           84.3517           82.8398
      2019.6048           84.4552           83.5698
      2019.7572           84.5827           81.2251
      2019.9096           84.7765           83.6255
      2020.0620           85.3642           83.0919
      2020.2144           84.3954           85.5268
      2020.3668           86.2174           83.9165
      2020.5192           86.8316           82.0517
      2020.6716           87.4530           88.3670
      2020.8240           88.5596           89.3576
      2020.9764           88.6274           89.6189
      2021.1288           89.8655           81.9202
      2021.2812           90.0542           76.7227
      2021.4336           89.9636           71.7815
      2021.5860           90.7768           72.7257
      2021.7384           90.6668           73.9689
      2021.8908           91.4721           73.2722
      2022.0432           91.5276           68.7803
      2022.1956           90.5987           65.1217
      2022.3480           90.3329           66.9211
      2022.5004           91.8562           76.6111
      2022.6528           91.5048           88.3566
      2022.8052           90.8157           91.2917
      2022.9576           90.9684           90.0266
      2023.1100           91.3304           87.8036
      2023.2624           91.7062           87.6002
      2023.4148           92.5782           89.7176
      2023.5672           92.6017           87.4255
      2023.7196           93.8649           90.7589
      2023.8720           93.8708           89.7583
      2024.0244           93.9133           92.9962
      2024.1768           93.9258           91.5348
      2024.3292           94.7008           93.7899
      2024.4816           94.6760           99.0233
      2024.6340           94.7863          102.5316
      2024.7864           94.9970          105.9331
      2024.9388           97.3138          101.5986
      2025.0912           96.9402          104.2681
      2025.2436           96.3470          101.1475
      2025.3960           96.9682          101.3730
      2025.5484           97.2130           99.9011
      2025.7008           96.9097          102.2596
      2025.8532           97.4803          102.9413
      2026.0056           97.7353          105.5965
      2026.1580           97.6450          106.6109
      2026.3104           97.8885          110.2901
      2026.4628           98.0837          105.9230
      2026.6152           98.4960          107.6879
      2026.7676           95.9244          101.5594
      2026.9200           96.0038          102.4551
      2027.0724           96.2493           94.3659
      2027.2248           96.4595           86.3123
      2027.3772           96.9009           79.0740
      2027.5296           97.0370           72.8056
      2027.6820           97.8591           67.3652
      2027.8344           98.6355           68.2113
      2027.9868           98.7945           74.3631
      2028.1392           98.7771           88.9219
      2028.2916           99.1608           95.7414
      2028.4440           95.4352          100.6597
      2028.5964           95.5085          101.1251
      2028.7488           95.5695           99.7326
      2028.9012           95.0350           99.7326
      2029.0536           93.6347           93.2115
      2029.2060           93.2874           84.4877
      2029.3584           93.2868           74.9092
      2029.5108           93.3110           74.2622
      2029.6632           93.5781           74.9882
      2029.8156           94.8224           73.9043
      2029.9680           94.0453           75.5665
      2030.1204           95.4309           78.7533
      2030.2728           95.9995           89.4808
      2030.4252           96.7410          102.0176
      2030.5776           96.9298          114.1697
      2030.7300           96.1809          127.6307
      2030.8824           95.4319          148.1145
      2031.0348          100.4808          173.6682
      2031.1872          100.3631          194.7381
      2031.3396          101.3224          193.0105
      2031.4920          103.0696          196.4852
      2031.6444          102.4391          187.3094
      2031.7968          102.4831          175.2841
      2031.9492          101.6588          152.9356
      2032.1016          102.2040          131.9750
      2032.2540          101.9690          123.3183
      2032.4064           91.9941          115.9646
      2032.5588           92.2836          116.7800
      2032.7112           92.4408          111.9302
      2032.8636           92.6532          112.1087
      2033.0160           92.6295          114.5480
      2033.1684           95.5091          112.7975
      2033.3208           94.7862          111.8367
      2033.4732           96.2264          108.4249
      2033.6256           94.5266          107.7048
      2033.7780           94.4788          105.4840
      2033.9304           94.4558          106.7614
      2034.0828           99.0609          109.1833
      2034.2352           97.2494          107.6843
      2034.3876           97.2084          112.0094
      2034.5400           97.1268          110.5291
      2034.6924           97.1604          112.9197
      2034.8448           97.2200          109.7253
      2034.9972           97.3473          114.1725
