~Version
VERS .        2      : CWLS LAS Version 2.0
WRAP .        NO     : One Line per Depth Step 
~Well
#MNEM.UNIT       Data Type                    Information
#---------       ---------                    -------------------------------
 STRT.M 1119.8352 :
 STOP.M 2184.8064 :
 STEP.M 0.1524 :
 NULL. -999.2500 :
 COMP.      LAM SON JOC             : COMPANY NAME
 WELL.      W4                      : WELL NAME
 FLD .      DONG DO                 : FIELD NAME
 LOC .      CUU LONG BASIN          : LOCATION
 PROV.      OFFSHORE                : PROVINCE
 COUN.      VIETNAM                 : COUNTY
 STATE.     VUNG TAU                : 
 CTRY.      VIETNAM                 : COUNTRY
 SRVC.      DUYENBEO                : SERVICE COMPANY
 DATE.      04 MAR 2011             : SERVICE DATE
 LOSTARTIME.04 03 2011              : 
 UWI.       0123456789BEO0126       : UNIQUE WELL ID
 API.       9876543210126           : 
 LIC .      00074                   : LICENCE NUMBER
 LATI.      14                      : LATITUDE
 LONG.      1414                    : LONGITUDE
 GDAT.      LAVENDER4               : GEODETIC DATUM
~Curve
#MNEM.UNIT       API Code            Curve    Description
#--------        --------------      -----    -------------------
DEPTH.M  :
DTCO3.US/F  :
ECGR.GAPI  :
~Parameter
#MNEM.UNIT       Value                        Description
#---------       ---------                    -------------
~A  DEPTH   DTCO3   ECGR
# ...
      1190.2440          118.3488           89.7472
      1190.3964          117.3573           93.9940
      1190.5488          115.7175           95.2664
      1190.7012          113.9038           93.0553
      1190.8536          114.2256           85.9432
      1191.0060          109.9646           84.7560
      1191.1584          105.9074           82.1489
      1191.3108          100.8010           88.4288
      1191.4632           96.7109           91.2444
      1191.6156           93.9759           96.2194
      1191.7680           91.0463           92.0101
      1191.9204           90.3106           89.5438
      1192.0728           90.5573           84.3583
      1192.2252           91.7088           91.0439
      1192.3776           93.3678           87.3466
      1192.5300           95.8985           88.4666
      1192.6824           97.0585           81.6927
      1192.8348           98.2142           83.5921
      1192.9872          101.6824           83.2634
      1193.1396          102.5966           87.3608
      1193.2920          103.6178           86.4204
      1193.4444          105.4172           86.2793
      1193.5968          106.0255           85.2405
      1193.7492          105.7164           90.0993
      1193.9016          105.0679           92.2860
      1194.0540          104.5437           93.2516
      1194.2064          103.9797           85.3586
      1194.3588          103.9276           81.8143
      1194.5112          104.1362           76.3484
      1194.6636          104.4588           83.3836
      1194.8160          105.7626           84.7803
      1194.9684          106.0571           84.6274
      1195.1208          106.5732           80.7921
      1195.2732          107.6764           83.5822
      1195.4256          108.4591           86.9386
      1195.5780          109.1035           87.8435
      1195.7304          109.2562           86.1262
      1195.8828          109.2094           84.4004
      1196.0352          108.6724           87.0118
      1196.1876          108.1140           90.0542
      1196.3400          108.0039           88.3085
      1196.4924          107.8820           82.2577
      1196.6448          107.8507           81.8751
      1196.7972          108.0371           89.9537
      1196.9496          108.3195           89.9133
      1197.1020          109.4090           90.9720
      1197.2544          110.0395           88.9685
      1197.4068          110.7044           92.6355
      1197.5592          111.0174           87.7603
      1197.7116          111.7942           87.0084
      1197.8640          111.9702           87.2510
      1198.0164          112.3527           92.4969
      1198.1688          112.5421           90.8204
      1198.3212          112.8794           93.3953
      1198.4736          112.7372           91.9284
      1198.6260          112.7406           93.6332
      1198.7784          112.5388           91.1255
      1198.9308          111.0569           90.0235
      1199.0832          110.1344           90.0120
      1199.2356          110.5538           89.8264
      1199.3880          109.9686           90.0113
      1199.5404          110.5927           88.6966
      1199.6928          110.8440           86.4580
      1199.8452          110.6856           87.3726
      1199.9976          110.8759           93.7331
      1200.1500          110.7539           98.0502
      1200.3024          110.5778          101.6273
      1200.4548          110.0999          103.1077
      1200.6072          109.9968          101.6932
      1200.7596          111.8444          100.1124
      1200.9120          109.1347           91.6507
      1201.0644          109.1359           92.9687
      1201.2168          111.6839           91.3733
      1201.3692          108.7760           95.7226
      1201.5216          108.0139           94.5129
      1201.6740          107.2794           93.0907
      1201.8264          105.0990           95.6731
      1201.9788          105.3299           95.2401
      1202.1312          103.3069           93.4160
      1202.2836          100.8606           91.1013
      1202.4360          100.2540           90.6446
      1202.5884          100.4565           86.9206
      1202.7408          101.6791           85.5695
      1202.8932          102.1657           87.4079
      1203.0456          105.3596           93.9166
      1203.1980          107.4281           97.9433
      1203.3504          108.2615          100.4727
      1203.5028          110.5639          102.4809
      1203.6552          111.8738          102.1007
      1203.8076          112.3836           96.7675
      1203.9600          112.7365           92.0824
      1204.1124          112.0895           93.9345
      1204.2648          111.4709           94.3139
      1204.4172          110.6002           93.3251
      1204.5696          110.1048           88.3431
      1204.7220          110.0291           90.0355
      1204.8744          108.6605           92.2038
      1205.0268          107.8248           91.1098
      1205.1792          107.0512           90.1682
      1205.3316          105.1945           89.0955
      1205.4840          104.6336           89.5690
      1205.6364          103.1451           85.4824
      1205.7888           97.6307           81.5515
      1205.9412           95.9401           80.7817
      1206.0936           93.4849           83.4256
      1206.2460           94.0764           81.2924
      1206.3984           94.5095           75.6994
      1206.5508           95.1101           74.8534
      1206.7032          101.1064           78.6159
      1206.8556          101.7420           82.4055
      1207.0080          101.5443           86.8376
      1207.1604          108.6290           89.6634
      1207.3128          108.0506           92.1906
      1207.4652          108.4868           92.7315
      1207.6176          108.5436           93.7318
      1207.7700          107.5276           97.9520
      1207.9224          109.3897          102.5404
      1208.0748          107.8680           99.5507
      1208.2272          106.9977          100.8778
      1208.3796          107.9244           94.3137
      1208.5320          103.8381           92.4738
      1208.6844          102.3049           88.6602
      1208.8368          102.7453           89.5757
      1208.9892          102.7610           95.0209
      1209.1416          100.7471           89.9703
      1209.2940           98.9137           89.9616
      1209.4464           99.3707           89.7162
      1209.5988           97.4537           91.6442
      1209.7512           91.0340           91.4488
      1209.9036           89.2213           88.2505
      1210.0560           87.3816           84.5009
      1210.2084           85.0032           81.8950
      1210.3608           86.8540           78.6615
      1210.5132           87.5267           80.8776
      1210.6656           87.0624           81.2182
      1210.8180           86.1645           81.4291
      1210.9704           72.5242           81.1953
      1211.1228           69.9988           77.7290
      1211.2752           67.8452           74.5028
      1211.4276           66.0601           72.8613
      1211.5800           65.1526           71.5372
      1211.7324           64.9665           70.9760
      1211.8848           64.3458           70.6304
      1212.0372           64.9346           69.7068
      1212.1896           65.5588           69.5647
      1212.3420           67.7661           69.5873
      1212.4944           69.0755           69.3112
      1212.6468           69.3788           73.8744
      1212.7992           69.8103           73.6549
      1212.9516           69.9261           78.9790
      1213.1040           67.0781           80.1863
      1213.2564           68.9296           81.3397
      1213.4088           70.5565           78.8179
      1213.5612           75.5709           74.7835
