~Version
VERS .        2      : CWLS LAS Version 2.0
WRAP .        NO     : One Line per Depth Step 
~Well
#MNEM.UNIT       Data Type                    Information
#---------       ---------                    -------------------------------
 STRT.M 1119.8352 :
 STOP.M 2184.8064 :
 STEP.M 0.1524 :
 NULL. -999.2500 :
 COMP.      LAM SON JOC             : COMPANY NAME
 WELL.      W4                      : WELL NAME
 FLD .      DONG DO                 : FIELD NAME
 LOC .      CUU LONG BASIN          : LOCATION
 PROV.      OFFSHORE                : PROVINCE
 COUN.      VIETNAM                 : COUNTY
 STATE.     VUNG TAU                : 
 CTRY.      VIETNAM                 : COUNTRY
 SRVC.      DUYENBEO                : SERVICE COMPANY
 DATE.      04 MAR 2011             : SERVICE DATE
 LOSTARTIME.04 03 2011              : 
 UWI.       0123456789BEO0126       : UNIQUE WELL ID
 API.       9876543210126           : 
 LIC .      00074                   : LICENCE NUMBER
 LATI.      14                      : LATITUDE
 LONG.      1414                    : LONGITUDE
 GDAT.      LAVENDER4               : GEODETIC DATUM
~Curve
#MNEM.UNIT       API Code            Curve    Description
#--------        --------------      -----    -------------------
DEPTH.M  :
DTCO3.US/F  :
ECGR.GAPI  :
~Parameter
#MNEM.UNIT       Value                        Description
#---------       ---------                    -------------
~A  DEPTH   DTCO3   ECGR
# ...
      1659.6360           87.7880           86.2717
      1659.7884           87.3352           86.0249
      1659.9408           87.2206           89.8101
      1660.0932           88.9372           87.9715
      1660.2456           88.2657           91.3441
      1660.3980           89.4677           87.1884
      1660.5504           91.0916           87.0375
      1660.7028           90.4097           84.1882
      1660.8552           92.6673           89.1976
      1661.0076           96.2327           88.3406
      1661.1600           96.5553           90.2551
      1661.3124           96.9366           87.5766
      1661.4648           96.6446           88.3802
      1661.6172           96.6751           84.4076
      1661.7696           97.9414           79.5222
      1661.9220           98.4618           77.2289
      1662.0744           96.2884           76.5127
      1662.2268           96.1010           79.9192
      1662.3792           94.4221           86.3047
      1662.5316           93.7030           88.4316
      1662.6840           92.8441           86.4118
      1662.8364           91.9746           82.7959
      1662.9888           91.2766           77.6066
      1663.1412           90.6604           78.5604
      1663.2936           88.5254           74.8551
      1663.4460           85.6527           80.4991
      1663.5984           85.2020           80.1680
      1663.7508           84.5027           85.2638
      1663.9032           84.2585           84.3752
      1664.0556           86.6357           81.5476
      1664.2080           85.3625           78.9257
      1664.3604           84.5693           82.0723
      1664.5128           83.7013           86.3598
      1664.6652           83.0799           90.8684
      1664.8176           82.7150           89.9046
      1664.9700           85.0997           88.5215
      1665.1224           82.7475           83.3979
      1665.2748           83.0867           79.1708
      1665.4272           87.2418           79.7208
      1665.5796           87.5800           80.4613
      1665.7320           89.7917           80.5049
      1665.8844           89.4805           78.2456
      1666.0368           90.0001           74.6279
      1666.1892           91.2144           77.8190
      1666.3416           91.7795           78.6915
      1666.4940           92.7999           81.7028
      1666.6464           92.7185           79.4007
      1666.7988           92.8140           78.1814
      1666.9512           91.8371           77.9972
      1667.1036           91.6842           78.5446
      1667.2560           90.4013           80.2013
      1667.4084           91.0732           83.7701
      1667.5608           91.7087           82.8451
      1667.7132           88.5053           83.1083
      1667.8656           87.4044           75.6232
      1668.0180           86.8184           77.2382
      1668.1704           85.5041           78.5766
      1668.3228           84.6721           79.8505
      1668.4752           83.8051           80.6861
      1668.6276           82.4947           79.7710
      1668.7800           80.0480           79.8936
      1668.9324           78.2307           73.4795
      1669.0848           77.1052           72.2103
      1669.2372           74.6134           72.6032
      1669.3896           73.7273           72.5852
      1669.5420           74.0779           70.3975
      1669.6944           75.3392           68.8377
      1669.8468           76.2897           71.6240
      1669.9992           77.2214           71.9090
      1670.1516           78.0449           75.1010
      1670.3040           79.2485           75.8815
      1670.4564           78.8944           73.6801
      1670.6088           78.6143           74.1779
      1670.7612           77.8336           73.4792
      1670.9136           75.8774           80.5212
      1671.0660           75.3888           82.5605
      1671.2184           74.8378           80.0046
      1671.3708           73.5639           72.2888
      1671.5232           73.4169           67.7641
      1671.6756           73.0343           70.5379
      1671.8280           72.5500           75.4817
      1671.9804           71.6965           76.9742
      1672.1328           71.5402           78.2375
      1672.2852           70.3344           79.6192
      1672.4376           70.2350           79.7089
      1672.5900           68.9308           76.8260
      1672.7424           68.0347           73.0321
      1672.8948           67.9443           69.5319
      1673.0472           68.3059           70.1187
      1673.1996           68.5952           71.0932
      1673.3520           69.1025           72.8261
      1673.5044           69.9635           72.0546
      1673.6568           70.5606           73.7614
      1673.8092           70.3484           71.3935
      1673.9616           70.0580           73.8037
      1674.1140           70.1239           72.4360
      1674.2664           71.0928           75.7200
      1674.4188           72.0163           76.6370
      1674.5712           72.2706           74.2462
      1674.7236           72.2291           72.3613
      1674.8760           71.8761           70.0302
      1675.0284           71.3574           72.7173
      1675.1808           70.8160           72.5192
      1675.3332           69.7990           71.3312
      1675.4856           70.1406           70.1922
      1675.6380           71.9916           69.1964
      1675.7904           73.4916           66.5527
      1675.9428           76.9716           63.9620
      1676.0952          100.1435           65.6239
      1676.2476           91.4120           66.9391
      1676.4000           82.6804           72.6915
      1676.5524           86.4256           77.3650
      1676.7048           94.6910           81.7285
      1676.8572           96.5173           80.7482
      1677.0096           96.5313           83.7690
      1677.1620           96.8497           77.1703
      1677.3144           97.6370           80.0087
      1677.4668           97.7579           76.6815
      1677.6192           97.9461           78.8598
      1677.7716           98.3897           78.3900
      1677.9240           98.7024           78.5174
      1678.0764           99.0771           83.2185
      1678.2288           99.8732           85.4753
      1678.3812           99.8633           85.5824
      1678.5336           99.9394           87.5215
      1678.6860          100.6132           87.8179
      1678.8384          100.9011           89.0731
      1678.9908          100.9630           88.5666
      1679.1432          101.2677           86.8245
      1679.2956          101.6012           81.4979
      1679.4480          101.6693           76.9947
      1679.6004          101.5627           75.5076
      1679.7528          102.1504           80.4458
      1679.9052          102.3877           82.2210
      1680.0576          102.7878           80.3919
      1680.2100          102.7613           75.5645
      1680.3624          102.3938           72.6844
      1680.5148          101.3828           77.2508
      1680.6672          101.0821           81.8916
      1680.8196          100.8923           85.8128
      1680.9720          100.3749           85.9688
      1681.1244           99.9719           86.4921
      1681.2768          100.1665           82.6014
      1681.4292           99.9910           83.8893
      1681.5816           99.8440           83.9272
      1681.7340           99.7199           85.3574
      1681.8864           99.6993           82.5690
      1682.0388           99.9908           79.5746
      1682.1912          100.1728           82.2198
      1682.3436           99.8364           82.6796
      1682.4960           99.8624           86.6026
      1682.6484           99.9295           87.7902
      1682.8008          100.0201           87.4239
      1682.9532          100.0587           82.5219
