~Version
VERS .        2      : CWLS LAS Version 2.0
WRAP .        NO     : One Line per Depth Step 
~Well
#MNEM.UNIT       Data Type                    Information
#---------       ---------                    -------------------------------
 STRT.M 1119.8352 :
 STOP.M 2184.8064 :
 STEP.M 0.1524 :
 NULL. -999.2500 :
 COMP.      LAM SON JOC             : COMPANY NAME
 WELL.      W4                      : WELL NAME
 FLD .      DONG DO                 : FIELD NAME
 LOC .      CUU LONG BASIN          : LOCATION
 PROV.      OFFSHORE                : PROVINCE
 COUN.      VIETNAM                 : COUNTY
 STATE.     VUNG TAU                : 
 CTRY.      VIETNAM                 : COUNTRY
 SRVC.      DUYENBEO                : SERVICE COMPANY
 DATE.      04 MAR 2011             : SERVICE DATE
 LOSTARTIME.04 03 2011              : 
 UWI.       0123456789BEO0126       : UNIQUE WELL ID
 API.       9876543210126           : 
 LIC .      00074                   : LICENCE NUMBER
 LATI.      14                      : LATITUDE
 LONG.      1414                    : LONGITUDE
 GDAT.      LAVENDER4               : GEODETIC DATUM
~Curve
#MNEM.UNIT       API Code            Curve    Description
#--------        --------------      -----    -------------------
DEPTH.M  :
DTCO3.US/F  :
ECGR.GAPI  :
~Parameter
#MNEM.UNIT       Value                        Description
#---------       ---------                    -------------
~A  DEPTH   DTCO3   ECGR
# ...
      1870.8624           81.9135           74.1093
      1871.0148           82.4129           72.8024
      1871.1672           82.6165           70.9342
      1871.3196           82.7830           73.2278
      1871.4720           83.3836           78.6588
      1871.6244           83.6172           79.8951
      1871.7768           83.8751           77.6036
      1871.9292           83.7074           71.9847
      1872.0816           83.3515           73.1469
      1872.2340           83.4292           75.7155
      1872.3864           83.4240           75.7265
      1872.5388           83.1925           73.0571
      1872.6912           82.8935           73.4589
      1872.8436           82.6323           77.7919
      1872.9960           83.1099           77.6556
      1873.1484           82.6162           79.1417
      1873.3008           82.4873           84.0784
      1873.4532           82.7239           94.1358
      1873.6056           82.4726          100.3705
      1873.7580           81.9814          102.7092
      1873.9104           81.7299          107.8448
      1874.0628           81.6453          104.0836
      1874.2152           81.8997           99.3976
      1874.3676           82.0474           89.6029
      1874.5200           82.2180           83.5381
      1874.6724           82.4314           82.9767
      1874.8248           82.7548           77.4981
      1874.9772           83.3189           77.8183
      1875.1296           83.3999           75.5148
      1875.2820           83.4385           78.9181
      1875.4344           83.6441           82.1463
      1875.5868           84.3913           80.3881
      1875.7392           85.4466           75.6711
      1875.8916           85.6411           68.9764
      1876.0440           85.7799           66.1094
      1876.1964           88.0270           66.1942
      1876.3488           84.7939           68.7506
      1876.5012           84.0316           74.0696
      1876.6536           83.3373           78.5125
      1876.8060           82.6324           81.1027
      1876.9584           82.0483           79.0658
      1877.1108           82.1844           79.1238
      1877.2632           82.3968           80.5767
      1877.4156           82.4849           82.5462
      1877.5680           82.6376           84.1248
      1877.7204           83.0657           82.4475
      1877.8728           84.5472           81.9944
      1878.0252           85.0803           75.8420
      1878.1776           84.7887           69.3554
      1878.3300           85.3332           63.2911
      1878.4824           83.7880           65.3620
      1878.6348           82.7869           70.7690
      1878.7872           82.1006           73.1168
      1878.9396           81.3470           78.5031
      1879.0920           83.1717           83.4952
      1879.2444           79.7840           89.6130
      1879.3968           78.1906           84.3084
      1879.5492           78.1941           75.4011
      1879.7016           78.5296           69.6334
      1879.8540           78.8164           68.7268
      1880.0064           79.5339           67.5043
      1880.1588           80.4519           66.2430
      1880.3112           80.7955           70.9778
      1880.4636           80.8036           79.7150
      1880.6160           82.1362           84.7980
      1880.7684           83.2977           88.5867
      1880.9208           83.5670           89.9466
      1881.0732           83.6340           86.9194
      1881.2256           83.6645           82.6817
      1881.3780           83.4113           80.5299
      1881.5304           83.2708           85.7896
      1881.6828           83.2881           88.3126
      1881.8352           83.2291           90.1738
      1881.9876           84.0473           94.7354
      1882.1400           84.4251           98.2048
      1882.2924           84.2835           95.7704
      1882.4448           84.2393           88.9017
      1882.5972           84.2230           83.2569
      1882.7496           81.7373           83.8729
      1882.9020           81.6701           83.8183
      1883.0544           81.4096           84.0488
      1883.2068           81.3120           84.9133
      1883.3592           80.2436           84.7036
      1883.5116           79.4818           82.4283
      1883.6640           79.2865           80.2231
      1883.8164           79.1500           76.9811
      1883.9688           79.0931           72.8647
      1884.1212           79.0516           68.8546
      1884.2736           78.9068           69.9144
      1884.4260           79.9760           68.6525
      1884.5784           80.4071           69.6759
      1884.7308           80.5655           66.9025
      1884.8832           80.8088           69.2492
      1885.0356           80.8612           65.8937
      1885.1880           80.9240           66.7729
      1885.3404           81.0237           63.9084
      1885.4928           81.0451           63.1851
      1885.6452           80.9647           64.6608
      1885.7976           80.8038           68.5264
      1885.9500           80.9064           72.2109
      1886.1024           80.9520           72.5194
      1886.2548           81.0127           72.9474
      1886.4072           82.9907           72.2290
      1886.5596           83.3917           72.7333
      1886.7120           83.7882           76.6521
      1886.8644           84.4180           79.3714
      1887.0168           85.2680           83.0054
      1887.1692           85.5683           83.8875
      1887.3216           85.7711           86.4903
      1887.4740           85.9537           87.4737
      1887.6264           86.3784           82.7619
      1887.7788           86.3465           81.6745
      1887.9312           86.5455           74.8322
      1888.0836           85.2640           73.8641
      1888.2360           83.7134           66.5401
      1888.3884           85.3779           69.5415
      1888.5408           85.1019           72.8269
      1888.6932           84.8913           78.3755
      1888.8456           84.3568           77.6923
      1888.9980           84.0226           78.0670
      1889.1504           83.6755           84.1417
      1889.3028           83.5466           93.1707
      1889.4552           83.9883          101.0086
      1889.6076           83.8088          105.3540
      1889.7600           84.0039           93.9770
      1889.9124           84.1790           85.5433
      1890.0648           84.6748           72.3551
      1890.2172           84.7650           76.7574
      1890.3696           85.1815           75.6302
      1890.5220           85.3804           80.0257
      1890.6744           85.7173           81.6370
      1890.8268           85.6987           84.7776
      1890.9792           85.8916           89.5737
      1891.1316           85.8873           87.1527
      1891.2840           86.2364           87.7668
      1891.4364           84.6556           88.7871
      1891.5888           85.0496           97.3839
      1891.7412           85.6569          106.7955
      1891.8936           86.2085          107.1347
      1892.0460           86.7643          102.2189
      1892.1984           89.7994           96.3766
      1892.3508           89.7854           91.5380
      1892.5032           89.3279           82.9090
      1892.6556           88.7156           75.2254
      1892.8080           87.4219           71.2931
      1892.9604           86.6452           75.6943
      1893.1128           85.9605           80.3181
      1893.2652           84.8396           86.4444
      1893.4176           83.9122           90.5865
      1893.5700           83.0276           88.3807
      1893.7224           83.0568           86.9784
      1893.8748           82.9369           83.9715
      1894.0272           82.5690           89.4346
      1894.1796           82.4713           83.1195
