~Version
VERS .        2      : CWLS LAS Version 2.0
WRAP .        NO     : One Line per Depth Step 
~Well
#MNEM.UNIT       Data Type                    Information
#---------       ---------                    -------------------------------
 STRT.M 1119.8352 :
 STOP.M 2184.8064 :
 STEP.M 0.1524 :
 NULL. -999.2500 :
 COMP.      LAM SON JOC             : COMPANY NAME
 WELL.      W4                      : WELL NAME
 FLD .      DONG DO                 : FIELD NAME
 LOC .      CUU LONG BASIN          : LOCATION
 PROV.      OFFSHORE                : PROVINCE
 COUN.      VIETNAM                 : COUNTY
 STATE.     VUNG TAU                : 
 CTRY.      VIETNAM                 : COUNTRY
 SRVC.      DUYENBEO                : SERVICE COMPANY
 DATE.      04 MAR 2011             : SERVICE DATE
 LOSTARTIME.04 03 2011              : 
 UWI.       0123456789BEO0126       : UNIQUE WELL ID
 API.       9876543210126           : 
 LIC .      00074                   : LICENCE NUMBER
 LATI.      14                      : LATITUDE
 LONG.      1414                    : LONGITUDE
 GDAT.      LAVENDER4               : GEODETIC DATUM
~Curve
#MNEM.UNIT       API Code            Curve    Description
#--------        --------------      -----    -------------------
DEPTH.M  :
DTCO3.US/F  :
ECGR.GAPI  :
~Parameter
#MNEM.UNIT       Value                        Description
#---------       ---------                    -------------
~A  DEPTH   DTCO3   ECGR
# ...
      1730.0448           83.0744           77.1271
      1730.1972           85.8076           78.8244
      1730.3496           81.9169           84.6491
      1730.5020           83.6788           88.5419
      1730.6544           68.0916           91.8064
      1730.8068           70.5833           87.6819
      1730.9592           69.2278           81.4520
      1731.1116           68.4473           76.6546
      1731.2640           72.4264           81.3373
      1731.4164           70.4315           83.2228
      1731.5688           70.1314           81.8577
      1731.7212           70.1826           80.6213
      1731.8736           71.0086           88.1187
      1732.0260           71.9244           92.6746
      1732.1784           71.5502           90.1426
      1732.3308           72.3196           86.7551
      1732.4832           75.3900           87.1538
      1732.6356           77.1867           83.9214
      1732.7880          104.2902           79.3409
      1732.9404          104.4612           78.4039
      1733.0928          104.1002           82.5330
      1733.2452          107.2196           90.3039
      1733.3976          102.0323           91.0681
      1733.5500          103.9893           90.3753
      1733.7024          101.8357           87.4063
      1733.8548           99.7122           83.5430
      1734.0072          101.5590           82.4700
      1734.1596          100.1532           79.5610
      1734.3120          100.5718           85.8869
      1734.4644          100.2550           84.3568
      1734.6168          101.6348           83.4402
      1734.7692          100.9948           78.2107
      1734.9216          101.2885           77.1796
      1735.0740          102.1173           76.2505
      1735.2264           99.2833           77.3411
      1735.3788           99.0502           80.4291
      1735.5312           99.0812           84.7039
      1735.6836           99.0694           86.8194
      1735.8360           99.2780           83.7924
      1735.9884           99.4124           80.7257
      1736.1408           99.5980           80.2255
      1736.2932           99.3771           86.4853
      1736.4456           98.9359           83.4376
      1736.5980          100.3942           81.3214
      1736.7504           96.7939           74.1449
      1736.9028           95.7086           77.4122
      1737.0552           95.3603           74.2568
      1737.2076           93.4160           75.2410
      1737.3600           70.7072           75.2477
      1737.5124           68.5510           75.9834
      1737.6648           66.8164           75.0946
      1737.8172           65.5353           71.6504
      1737.9696           66.2452           70.9652
      1738.1220           67.4218           68.4697
      1738.2744           67.4672           67.8094
      1738.4268           66.6213           70.2343
      1738.5792           69.8311           77.6364
      1738.7316           67.8193           85.3157
      1738.8840           67.5757           97.7077
      1739.0364           67.6406          100.5828
      1739.1888           68.0995           94.5101
      1739.3412           68.5111           77.6897
      1739.4936           66.9635           64.8384
      1739.6460           64.3159           64.5750
      1739.7984           64.4791           60.6990
      1739.9508           64.5622           64.3209
      1740.1032           63.8389           61.5531
      1740.2556           65.7589           65.5011
      1740.4080           70.5939           65.5702
      1740.5604           73.8496           71.0439
      1740.7128           77.7657           69.8767
      1740.8652          106.6619           76.5201
      1741.0176          119.9533           87.2674
      1741.1700          117.2373          111.3651
      1741.3224          117.0858          131.3045
      1741.4748          116.4511          144.4142
      1741.6272          117.2772          142.8094
      1741.7796          113.4405          139.5334
      1741.9320          113.9816          133.1519
      1742.0844          114.7508          132.9710
      1742.2368          117.8038          132.7890
      1742.3892          117.5557          142.2213
      1742.5416          117.7682          151.4312
      1742.6940          117.7924          156.2991
      1742.8464          114.7267          158.6240
      1742.9988          113.6112          147.8410
      1743.1512          117.3298          134.8781
      1743.3036          113.9687          115.3101
      1743.4560          113.7816          100.5133
      1743.6084          113.8167           87.9551
      1743.7608           81.6058           79.7483
      1743.9132           83.9738           82.4507
      1744.0656           84.9842           85.0702
      1744.2180           84.9501           90.5720
      1744.3704           85.8497           85.7462
      1744.5228           86.6365           84.7006
      1744.6752           89.8622           86.0596
      1744.8276           91.1802           88.3152
      1744.9800           91.9185           92.1685
      1745.1324          105.3874           94.5962
      1745.2848           95.0958           90.0916
      1745.4372           95.0451           87.6192
      1745.5896           94.6847           77.8657
      1745.7420           93.1334           74.2241
      1745.8944           91.9327           67.2782
      1746.0468           91.3728           68.3617
      1746.1992           87.8866           73.5290
      1746.3516           82.0672           83.6523
      1746.5040           81.1391           86.5254
      1746.6564           80.5684           85.0579
      1746.8088           79.9602           81.0338
      1746.9612           77.9253           75.2999
      1747.1136           81.1152           70.0607
      1747.2660           83.6747           63.2740
      1747.4184           84.4125           61.2208
      1747.5708           88.1637           62.4476
      1747.7232           86.6087           66.0742
      1747.8756           89.4691           72.4354
      1748.0280           94.0296           77.1063
      1748.1804           96.0004           82.9750
      1748.3328           96.9725           92.4866
      1748.4852           97.7481          103.6298
      1748.6376           97.3659          112.7135
      1748.7900           95.8970          115.3787
      1748.9424           96.2868          112.0501
      1749.0948           92.4357          114.0738
      1749.2472           91.2562          122.0551
      1749.3996           96.4115          126.8128
      1749.5520           96.4235          123.4832
      1749.7044           95.6680          109.9749
      1749.8568           95.4835          100.6896
      1750.0092           94.8601           88.2848
      1750.1616           94.4904           85.5676
      1750.3140           94.3983           79.3351
      1750.4664           95.8969           71.5428
      1750.6188           96.8509           59.3467
      1750.7712           95.3342           58.4938
      1750.9236           95.1199           56.1029
      1751.0760           95.1920           63.0638
      1751.2284           95.2291           67.2962
      1751.3808           94.6791           74.3190
      1751.5332           94.4217           74.1896
      1751.6856           94.0252           75.8363
      1751.8380           89.0918           74.8027
      1751.9904           88.4677           73.4309
      1752.1428           91.8955           66.6344
      1752.2952           87.7420           68.7716
      1752.4476           88.3103           76.6170
      1752.6000           88.8630           84.8043
      1752.7524           89.1403           87.4956
      1752.9048           89.0649           82.2597
      1753.0572           88.6443           78.1242
      1753.2096           88.8705           75.3404
      1753.3620           90.4237           72.5965
