~Version
VERS .        2      : CWLS LAS Version 2.0
WRAP .        NO     : One Line per Depth Step 
~Well
#MNEM.UNIT       Data Type                    Information
#---------       ---------                    -------------------------------
 STRT.M 1119.8352 :
 STOP.M 2184.8064 :
 STEP.M 0.1524 :
 NULL. -999.2500 :
 COMP.      LAM SON JOC             : COMPANY NAME
 WELL.      W4                      : WELL NAME
 FLD .      DONG DO                 : FIELD NAME
 LOC .      CUU LONG BASIN          : LOCATION
 PROV.      OFFSHORE                : PROVINCE
 COUN.      VIETNAM                 : COUNTY
 STATE.     VUNG TAU                : 
 CTRY.      VIETNAM                 : COUNTRY
 SRVC.      DUYENBEO                : SERVICE COMPANY
 DATE.      04 MAR 2011             : SERVICE DATE
 LOSTARTIME.04 03 2011              : 
 UWI.       0123456789BEO0126       : UNIQUE WELL ID
 API.       9876543210126           : 
 LIC .      00074                   : LICENCE NUMBER
 LATI.      14                      : LATITUDE
 LONG.      1414                    : LONGITUDE
 GDAT.      LAVENDER4               : GEODETIC DATUM
~Curve
#MNEM.UNIT       API Code            Curve    Description
#--------        --------------      -----    -------------------
DEPTH.M  :
DTCO3.US/F  :
ECGR.GAPI  :
~Parameter
#MNEM.UNIT       Value                        Description
#---------       ---------                    -------------
~A  DEPTH   DTCO3   ECGR
# ...
      1260.6528          119.4855          156.8346
      1260.8052          120.2030          151.7848
      1260.9576          121.4487          154.8949
      1261.1100          121.9884          159.3137
      1261.2624          120.6587          163.3396
      1261.4148          120.0938          163.1761
      1261.5672          123.0801          161.6328
      1261.7196          124.5019          161.3056
      1261.8720          125.8768          160.4087
      1262.0244          128.9623          159.3882
      1262.1768          129.2243          165.6078
      1262.3292          128.6737          164.1343
      1262.4816          129.0121          159.3478
      1262.6340          130.6053          155.1933
      1262.7864          129.3312          147.8381
      1262.9388          129.1051          135.3125
      1263.0912          125.8567          129.9682
      1263.2436          126.3561          126.4579
      1263.3960          122.5024          120.6909
      1263.5484          117.9603          113.7843
      1263.7008          118.9445          105.3757
      1263.8532          110.7509          101.9010
      1264.0056          115.1508           99.7902
      1264.1580          120.1942          114.7013
      1264.3104          124.0992          129.8917
      1264.4628          127.9659          147.3821
      1264.6152          130.1092          151.4973
      1264.7676          130.0486          162.6064
      1264.9200          127.5425          163.9842
      1265.0724          126.1124          161.7323
      1265.2248          127.9243          150.7518
      1265.3772          128.3287          144.3253
      1265.5296          127.3926          140.5657
      1265.6820          125.3294          142.4560
      1265.8344          121.3729          140.9952
      1265.9868          116.2874          147.7761
      1266.1392          115.2735          142.4957
      1266.2916          114.9221          146.1457
      1266.4440          111.1077          142.5414
      1266.5964          110.2738          142.3357
      1266.7488          110.1119          134.0180
      1266.9012          109.4320          122.5451
      1267.0536          108.6968          120.4173
      1267.2060          108.5415          117.3338
      1267.3584          108.7791          118.4552
      1267.5108          108.9197          115.4332
      1267.6632          109.1020          119.3466
      1267.8156          109.2755          117.9690
      1267.9680          109.3440          115.8444
      1268.1204          109.5893          113.3285
      1268.2728          109.5274          114.7885
      1268.4252          109.2996          119.0450
      1268.5776          108.5034          118.6633
      1268.7300          108.0820          122.9723
      1268.8824          109.7175          122.2566
      1269.0348          107.2599          127.4804
      1269.1872          106.9577          125.0447
      1269.3396          106.7505          124.6337
      1269.4920          106.6691          122.3135
      1269.6444          106.9011          126.2586
      1269.7968          106.8587          124.2358
      1269.9492          107.1520          127.6943
      1270.1016          107.1566          123.5065
      1270.2540          107.6969          121.3290
      1270.4064          107.7275          117.5787
      1270.5588          107.4160          117.6541
      1270.7112          107.7793          125.2711
      1270.8636          107.5296          127.9746
      1271.0160          107.7704          129.0182
      1271.1684          107.6196          122.6211
      1271.3208          107.8303          115.0173
      1271.4732          107.8876          108.0891
      1271.6256          108.2645          104.6922
      1271.7780          108.3122          104.0013
      1271.9304          108.0337          103.3995
      1272.0828          107.7205          102.2667
      1272.2352          107.8764          106.6657
      1272.3876          107.8703          106.7325
      1272.5400          102.1281          106.9329
      1272.6924          100.5943           97.8258
      1272.8448          100.6103           93.2367
      1272.9972          101.2607           88.8802
      1273.1496          101.9934           95.8352
      1273.3020          102.9494           99.8459
      1273.4544          103.5050          102.4505
      1273.6068          105.0206          101.6671
      1273.7592          111.9004          101.2944
      1273.9116          108.3739           97.9953
      1274.0640          108.7555           97.8271
      1274.2164          108.3333          101.3831
      1274.3688          109.2731          103.4127
      1274.5212          105.3848          102.4171
      1274.6736          104.1167           98.6899
      1274.8260          104.0023           99.2485
      1274.9784          102.1202           95.4272
      1275.1308          101.7134           94.8253
      1275.2832          101.4260           93.1430
      1275.4356          101.4101           94.5071
      1275.5880          101.4807           96.2949
      1275.7404          101.8379           94.8910
      1275.8928          103.1764           98.1571
      1276.0452          103.3209           93.1180
      1276.1976          104.7593           94.1782
      1276.3500          105.7673           88.2960
      1276.5024          106.2672           93.5697
      1276.6548          107.0261           95.3239
      1276.8072          107.5248           98.5005
      1276.9596          108.3429          100.5971
      1277.1120          107.9327          101.4705
      1277.2644          108.1117          101.4982
      1277.4168          109.3326           99.2290
      1277.5692          109.2106           95.3772
      1277.7216          109.0785           88.9829
      1277.8740          109.1973           88.4737
      1278.0264          108.7268           94.2340
      1278.1788          108.6342           99.2916
      1278.3312          108.5772           96.4275
      1278.4836          109.2857           97.7242
      1278.6360          109.8301          100.2221
      1278.7884          110.0150          106.2503
      1278.9408          110.5088          105.1969
      1279.0932          110.9612          108.8761
      1279.2456          111.1989          108.0290
      1279.3980          111.6241          107.5814
      1279.5504          112.0709          105.7110
      1279.7028          112.0890          110.0094
      1279.8552          112.3907          106.6163
      1280.0076          112.8572          106.0844
      1280.1600          113.4580          104.0703
      1280.3124          113.4381          103.9998
      1280.4648          113.9622          103.9820
      1280.6172          114.2710          103.0250
      1280.7696          115.0684          100.9979
      1280.9220          115.8359           96.6205
      1281.0744          115.8997           90.5663
      1281.2268          116.0492           88.2118
      1281.3792          115.6755           90.1634
      1281.5316          115.3896           87.3061
      1281.6840          114.9866           88.8792
      1281.8364          114.7845           87.1617
      1281.9888          114.5875           87.2163
      1282.1412          114.3522           88.4074
      1282.2936          114.8674           89.9155
      1282.4460          114.4846           93.6533
      1282.5984          115.4238           89.7065
      1282.7508          115.1608           87.7223
      1282.9032          115.4093           87.7147
      1283.0556          116.1221           85.2079
      1283.2080          115.9087           82.8309
      1283.3604          115.8018           81.2547
      1283.5128          115.7144           78.0334
      1283.6652          115.7114           83.8377
      1283.8176          115.4431           86.1681
      1283.9700          115.3285           93.4315
