~Version
VERS .        2      : CWLS LAS Version 2.0
WRAP .        NO     : One Line per Depth Step 
~Well
#MNEM.UNIT       Data Type                    Information
#---------       ---------                    -------------------------------
 STRT.M 1119.8352 :
 STOP.M 2184.8064 :
 STEP.M 0.1524 :
 NULL. -999.2500 :
 COMP.      LAM SON JOC             : COMPANY NAME
 WELL.      W4                      : WELL NAME
 FLD .      DONG DO                 : FIELD NAME
 LOC .      CUU LONG BASIN          : LOCATION
 PROV.      OFFSHORE                : PROVINCE
 COUN.      VIETNAM                 : COUNTY
 STATE.     VUNG TAU                : 
 CTRY.      VIETNAM                 : COUNTRY
 SRVC.      DUYENBEO                : SERVICE COMPANY
 DATE.      04 MAR 2011             : SERVICE DATE
 LOSTARTIME.04 03 2011              : 
 UWI.       0123456789BEO0126       : UNIQUE WELL ID
 API.       9876543210126           : 
 LIC .      00074                   : LICENCE NUMBER
 LATI.      14                      : LATITUDE
 LONG.      1414                    : LONGITUDE
 GDAT.      LAVENDER4               : GEODETIC DATUM
~Curve
#MNEM.UNIT       API Code            Curve    Description
#--------        --------------      -----    -------------------
DEPTH.M  :
DTCO3.US/F  :
ECGR.GAPI  :
~Parameter
#MNEM.UNIT       Value                        Description
#---------       ---------                    -------------
~A  DEPTH   DTCO3   ECGR
# ...
      1800.4536           83.4222           79.4176
      1800.6060           82.5684           75.3903
      1800.7584           82.9412           79.2987
      1800.9108           83.3679           78.6707
      1801.0632           86.0546           78.3868
      1801.2156           86.7458           76.6804
      1801.3680           87.2574           76.6980
      1801.5204           87.6416           79.8961
      1801.6728           88.1826           83.8031
      1801.8252           89.9748           83.0830
      1801.9776           90.5764           86.3776
      1802.1300           90.8994           83.9741
      1802.2824           91.0829           87.3800
      1802.4348           91.7636           85.8796
      1802.5872           91.5846           78.6054
      1802.7396           91.4076           79.3197
      1802.8920           91.4694           84.9056
      1803.0444           91.2951           83.2167
      1803.1968           89.1134           83.0820
      1803.3492           88.3590           81.1079
      1803.5016           87.7174           88.1583
      1803.6540           86.6411           87.2856
      1803.8064           86.0388           87.9058
      1803.9588           85.5755           84.7332
      1804.1112           85.1787           87.0027
      1804.2636           85.0900           88.3994
      1804.4160           84.7819           89.5508
      1804.5684           85.1390           86.9477
      1804.7208           85.1698           83.9334
      1804.8732           85.1697           81.0996
      1805.0256           85.1820           82.9135
      1805.1780           85.8776           83.3240
      1805.3304           87.3206           88.1989
      1805.4828           87.3205           93.6988
      1805.6352           87.7140          100.3601
      1805.7876           87.9444           98.5930
      1805.9400           87.2522           96.2723
      1806.0924           86.6044           94.2193
      1806.2448           86.4693           98.4932
      1806.3972           85.7371           98.7077
      1806.5496           85.2544           99.3471
      1806.7020           84.3412           98.3714
      1806.8544           84.3905           99.4134
      1807.0068           84.4688           97.1099
      1807.1592           84.6953           93.0068
      1807.3116           85.0098           93.6978
      1807.4640           86.1014           95.5158
      1807.6164           86.9912           94.6388
      1807.7688           87.1596           91.0020
      1807.9212           87.7029           86.9693
      1808.0736           87.4599           85.6338
      1808.2260           87.7033           85.9593
      1808.3784           87.7040           85.3148
      1808.5308           87.2563           87.1470
      1808.6832           87.3021           83.5067
      1808.8356           86.8939           80.7724
      1808.9880           86.0853           77.4322
      1809.1404           85.9179           81.0122
      1809.2928           86.1103           89.8270
      1809.4452           85.9530           92.7334
      1809.5976           86.0637           89.0253
      1809.7500           85.2472           79.4440
      1809.9024           86.3140           72.9359
      1810.0548           86.5423           72.2325
      1810.2072           86.6962           76.0588
      1810.3596           85.8166           84.5250
      1810.5120           85.6255           89.0636
      1810.6644           85.4835           88.9271
      1810.8168           85.2042           89.2186
      1810.9692           85.3263           91.3632
      1811.1216           84.8239           89.5376
      1811.2740           84.4624           88.5307
      1811.4264           84.6489           83.0722
      1811.5788           84.2539           83.7083
      1811.7312           83.9547           79.3630
      1811.8836           83.6685           75.6954
      1812.0360           85.4858           75.9447
      1812.1884           86.2753           78.7874
      1812.3408           86.2626           83.4953
      1812.4932           86.1820           83.5813
      1812.6456           83.9150           79.5619
      1812.7980           84.5209           76.3116
      1812.9504           84.7655           71.1711
      1813.1028           84.8846           68.7325
      1813.2552           84.8286           68.0358
      1813.4076           84.4089           67.6267
      1813.5600           83.8279           65.3300
      1813.7124           83.6882           67.4725
      1813.8648           83.4995           71.6751
      1814.0172           83.0868           77.2226
      1814.1696           82.8189           75.3723
      1814.3220           82.6342           78.8386
      1814.4744           82.7460           77.8325
      1814.6268           83.2996           75.2234
      1814.7792           83.0825           69.9009
      1814.9316           83.2498           66.0647
      1815.0840           83.4766           67.1512
      1815.2364           83.5829           68.3773
      1815.3888           84.9669           77.2956
      1815.5412           85.9933           81.6767
      1815.6936           85.8051           85.4420
      1815.8460           85.5686           84.6729
      1815.9984           85.8338           89.0298
      1816.1508           85.6999           87.7948
      1816.3032           84.5690           85.0209
      1816.4556           84.5563           76.5698
      1816.6080           84.6591           70.7939
      1816.7604           84.5740           63.8293
      1816.9128           85.0603           59.5192
      1817.0652           85.1555           59.0648
      1817.2176           85.2041           58.9448
      1817.3700           85.5364           64.3962
      1817.5224           85.1651           67.2228
      1817.6748           85.4152           75.1841
      1817.8272           85.4861           78.6922
      1817.9796           86.6204           76.3082
      1818.1320           86.4613           74.6238
      1818.2844           86.5932           70.6071
      1818.4368           86.0740           73.4254
      1818.5892           86.5425           73.4929
      1818.7416           86.9217           78.3749
      1818.8940           84.8583           82.6509
      1819.0464           84.7539           86.6901
      1819.1988           84.2090           89.9900
      1819.3512           84.0613           94.8548
      1819.5036           83.2113           95.2371
      1819.6560           83.2220           91.3137
      1819.8084           83.3705           80.9033
      1819.9608           84.8391           72.3346
      1820.1132           85.3530           64.8990
      1820.2656           85.1687           62.8904
      1820.4180           85.0391           66.4789
      1820.5704           85.2593           73.5308
      1820.7228           85.1428           82.7169
      1820.8752           85.0241           89.2755
      1821.0276           84.1898           88.3546
      1821.1800           83.2873           84.5369
      1821.3324           82.5435           81.2738
      1821.4848           82.3037           81.2155
      1821.6372           82.7423           82.2847
      1821.7896           83.5622           87.2384
      1821.9420           84.8578           86.2485
      1822.0944           85.6253           88.8010
      1822.2468           86.0501           83.4829
      1822.3992           87.4937           85.8638
      1822.5516           89.8685           86.4218
      1822.7040           89.9007           96.2009
      1822.8564           89.9450          104.7596
      1823.0088           90.1679          107.9628
      1823.1612           89.8249           97.6452
      1823.3136           88.4576           90.7774
      1823.4660           87.5199           78.3169
      1823.6184           86.9190           72.0985
      1823.7708           86.0744           62.9935
