~Version
VERS .        2      : CWLS LAS Version 2.0
WRAP .        NO     : One Line per Depth Step 
~Well
#MNEM.UNIT       Data Type                    Information
#---------       ---------                    -------------------------------
 STRT.M 1119.8352 :
 STOP.M 2184.8064 :
 STEP.M 0.1524 :
 NULL. -999.2500 :
 COMP.      LAM SON JOC             : COMPANY NAME
 WELL.      W4                      : WELL NAME
 FLD .      DONG DO                 : FIELD NAME
 LOC .      CUU LONG BASIN          : LOCATION
 PROV.      OFFSHORE                : PROVINCE
 COUN.      VIETNAM                 : COUNTY
 STATE.     VUNG TAU                : 
 CTRY.      VIETNAM                 : COUNTRY
 SRVC.      DUYENBEO                : SERVICE COMPANY
 DATE.      04 MAR 2011             : SERVICE DATE
 LOSTARTIME.04 03 2011              : 
 UWI.       0123456789BEO0126       : UNIQUE WELL ID
 API.       9876543210126           : 
 LIC .      00074                   : LICENCE NUMBER
 LATI.      14                      : LATITUDE
 LONG.      1414                    : LONGITUDE
 GDAT.      LAVENDER4               : GEODETIC DATUM
~Curve
#MNEM.UNIT       API Code            Curve    Description
#--------        --------------      -----    -------------------
DEPTH.M  :
DTCO3.US/F  :
ECGR.GAPI  :
~Parameter
#MNEM.UNIT       Value                        Description
#---------       ---------                    -------------
~A  DEPTH   DTCO3   ECGR
# ...
      2082.0888           90.9449           93.5817
      2082.2412           90.9660          105.7181
      2082.3936           92.2595          111.1372
      2082.5460           93.0412          120.2934
      2082.6984           93.1969          122.3002
      2082.8508           93.5178          114.1517
      2083.0032           93.4027          105.6593
      2083.1556           93.2748           98.8532
      2083.3080           93.4725          101.2605
      2083.4604           93.3289          104.8732
      2083.6128           91.5912          100.8739
      2083.7652           92.6455           99.7653
      2083.9176           95.2752          101.7110
      2084.0700           97.1652          103.3269
      2084.2224           97.8046          107.6778
      2084.3748           97.3952          108.7312
      2084.5272           98.8122          113.9663
      2084.6796           99.0046          113.8662
      2084.8320           99.6468          118.3077
      2084.9844           99.7777          120.6934
      2085.1368           99.7644          126.0084
      2085.2892          100.0052          119.8717
      2085.4416          100.3087          118.9660
      2085.5940          101.4220          115.0041
      2085.7464          102.6122          119.3849
      2085.8988          104.6316          122.9428
      2086.0512          106.1347          122.6245
      2086.2036          106.5495          125.5861
      2086.3560          106.8311          122.8640
      2086.5084          107.2475          123.8876
      2086.6608           98.7480          122.5165
      2086.8132          101.7450          123.9675
      2086.9656          103.6401          124.4491
      2087.1180          103.8569          123.6117
      2087.2704          104.9110          122.7487
      2087.4228          105.2971          123.1500
      2087.5752          104.2241          124.2303
      2087.7276          104.3294          124.6218
      2087.8800          104.1051          119.1860
      2088.0324          103.9220          116.2363
      2088.1848          104.0288          112.8674
      2088.3372           98.3822          117.0382
      2088.4896           98.3464          121.9777
      2088.6420           98.3026          123.2694
      2088.7944           98.0463          124.6574
      2088.9468           97.1564          118.6675
      2089.0992           97.1599          119.7404
      2089.2516           97.1283          113.4779
      2089.4040           97.2215          110.8554
      2089.5564           96.9799          107.5361
      2089.7088           97.2159          111.1261
      2089.8612           97.3522          112.8076
      2090.0136           97.6585          109.1819
      2090.1660           97.6260          113.5164
      2090.3184           97.9450          117.3719
      2090.4708           98.4862          124.1001
      2090.6232           98.2780          120.3699
      2090.7756           98.6753          119.0109
      2090.9280           98.4983          121.2977
      2091.0804           99.5524          118.9799
      2091.2328           99.7617          118.5754
      2091.3852           99.5375          113.7660
      2091.5376           99.7258          120.0085
      2091.6900          100.0596          126.7462
      2091.8424          100.1166          132.2597
      2091.9948          100.1183          128.1535
      2092.1472          100.5642          124.4274
      2092.2996          102.1143          119.9747
      2092.4520          103.5821          119.4870
      2092.6044          104.0224          123.8323
      2092.7568          103.7663          128.2564
      2092.9092          103.7826          132.9608
      2093.0616          104.4135          133.7254
      2093.2140          107.6811          137.3300
      2093.3664          107.8265          142.9711
      2093.5188          107.2656          139.3785
      2093.6712          107.0968          141.4781
      2093.8236          106.1707          137.8718
      2093.9760          102.9126          138.6073
      2094.1284           99.7951          134.6444
      2094.2808           98.4009          134.9048
      2094.4332           98.2652          133.4104
      2094.5856           97.6030          125.7094
      2094.7380           96.8250          124.6376
      2094.8904           96.2102          118.6629
      2095.0428           96.0788          116.4598
      2095.1952           96.3180          114.2973
      2095.3476           96.8582          120.1216
      2095.5000           97.1210          127.2913
      2095.6524           97.2452          124.1452
      2095.8048           97.2539          120.2669
      2095.9572           97.5522          122.1717
      2096.1096           97.6925          121.5387
      2096.2620           97.9331          123.6968
      2096.4144           97.6912          120.0588
      2096.5668           97.7742          126.2471
      2096.7192           98.7219          135.5414
      2096.8716          101.4454          143.6029
      2097.0240          101.6971          147.7083
      2097.1764          101.6739          149.1200
      2097.3288          101.5942          147.2294
      2097.4812          101.2143          151.7688
      2097.6336          101.1617          157.7625
      2097.7860          100.7105          163.1642
      2097.9384          100.6576          163.8460
      2098.0908          100.4452          157.2549
      2098.2432          100.5367          154.6094
      2098.3956          100.5795          155.9654
      2098.5480          101.1746          152.7345
      2098.7004          103.7120          155.4878
      2098.8528          106.0974          151.3004
      2099.0052          107.6086          154.5564
      2099.1576          108.4379          148.8113
      2099.3100          108.6595          147.9472
      2099.4624          109.0378          145.0627
      2099.6148          110.4567          152.7607
      2099.7672          114.4211          154.8450
      2099.9196          115.0323          160.5620
      2100.0720          115.2082          158.3901
      2100.2244          115.3017          160.8775
      2100.3768          116.2464          155.0182
      2100.5292          117.7535          154.3570
      2100.6816          117.9601          156.1743
      2100.8340          117.9401          157.4892
      2100.9864          117.8439          160.0570
      2101.1388          117.7829          154.2342
      2101.2912          117.8099          160.6365
      2101.4436          118.0079          155.9086
      2101.5960          117.7201          157.0264
      2101.7484          117.8012          154.9044
      2101.9008          118.0196          153.2838
      2102.0532          118.1443          149.3147
      2102.2056          118.7065          148.9344
      2102.3580          117.6347          150.8893
      2102.5104          117.9079          151.4982
      2102.6628          117.8443          152.9170
      2102.8152          117.9038          151.2548
      2102.9676          117.2760          150.6339
      2103.1200          117.2067          144.7694
      2103.2724          117.0272          143.5711
      2103.4248          116.9880          142.0761
      2103.5772          116.9085          142.5767
      2103.7296          116.5002          142.6312
      2103.8820          115.3500          143.4135
      2104.0344          116.0237          142.6828
      2104.1868          116.4771          142.5781
      2104.3392          116.4941          150.1011
      2104.4916          116.4561          155.5295
      2104.6440          116.3947          163.2731
      2104.7964          116.5850          157.0535
      2104.9488          116.7720          153.1208
      2105.1012          116.9582          151.4740
      2105.2536          116.9959          158.3067
      2105.4060          117.0091          161.1442
